,index,road,km,type,name,length,condition,lat,lon,model_type
0,0,N1,0.0,sourcesink,sourcesink,0.0,,23.7060278,90.443333,sourcesink
1,0,N1,1.8,Box Culvert,.,11.3,A,23.69873866,90.4588610799999,bridge
2,1,N1,4.925,Box Culvert,.,6.6,A,23.6946638363636,90.4877749181818,bridge
3,2,N1,8.976,PC Girder Bridge,KANCHPUR PC GIRDER BRIDGE,397.0,C,23.7050598925675,90.5232141463513,bridge
4,3,N1,10.543,Box Culvert,KATCHPUR BOX CULVERT,8.0,B,23.6964000869109,90.5350989801047,bridge
5,4,N1,10.88,Box Culvert,NOYAPARA CULVERT,6.3,A,23.6943906141361,90.5375740774869,bridge
6,5,N1,10.897,Box Culvert,ADUPUR CULVERT,6.3,A,23.6943023869158,90.5377073719626,bridge
7,6,N1,11.296,Box Culvert,NAYABARI KASPUR BOX CULVERT,8.3,A,23.6923601518691,90.5409183897196,bridge
8,7,N1,11.808,Box Culvert,NAYABARI BOX CULVERT,10.6,B,23.6909119315151,90.5454624957575,bridge
9,8,N1,12.239,Box Culvert,KHAS PARA BOX CULVERT,9.3,A,23.6884123260204,90.5485585290816,bridge
10,9,N1,12.253,Box Culvert,DAWAN BAG BOX CULVERT,6.1,A,23.6883197331632,90.548649807653,bridge
11,10,N1,12.66,PC Girder Bridge,MADAN PUR (R,26.3,A,23.685583027027,90.551207981081,bridge
12,11,N1,12.688,PC Girder Bridge,Madanpur Bridge(R,27.5,A,23.6853619779342,90.5513591765258,bridge
13,12,N1,13.574,Box Culvert,KAWTALA BOX CULVERT,11.9,A,23.6778035,90.5558194349999,bridge
14,13,N1,15.465,Box Culvert,MALIBAG BOX CULVERT,5.55,B,23.6633090696149,90.563856994797,bridge
15,14,N1,17.134,RCC Girder Bridge,Langalbandh Bridge.,159.52,C,23.6544257051136,90.576730225,bridge
16,15,N1,17.222,PC Girder Bridge,Darikandi Bridge (R,20.45,A,23.65397226,90.57741042,bridge
17,16,N1,17.222,PC Girder Bridge,Darikandi Bridge (L,20.5,A,23.65397226,90.57741042,bridge
18,17,N1,17.722,PC Girder Bridge,DARIKANDI BRIDGE (R,20.0,B,23.6515705663716,90.5814943946902,bridge
19,18,N1,17.722,PC Girder Bridge,DARIKANDI BRIDGE (L,20.0,B,23.6515705663716,90.5814943946902,bridge
20,19,N1,18.093,PC Girder Bridge,SONARKALI BRIDGE(L,24.5,B,23.6497543993548,90.5845490085483,bridge
21,20,N1,18.093,PC Girder Bridge,SONARKALI BRIDGE(R,24.5,B,23.6497543993548,90.5845490085483,bridge
22,21,N1,18.742,PC Girder Bridge,MOLLIK PARA BRIDGE (R,40.5,C,23.6459685949152,90.5892119813559,bridge
23,22,N1,19.76,Box Culvert,KRIBORDI BOX CULVERT,6.0,A,23.6379543715384,90.5936673976923,bridge
24,23,N1,20.397,Box Culvert,SHADIPUR BOX CULVERT,10.4,B,23.63380522,90.597394085,bridge
25,24,N1,21.184,PC Girder Bridge,MARIKHALL BRIDGE,89.2,A,23.6284668507692,90.6023015723077,bridge
26,25,N1,22.328,Box Culvert,SANGAKADI CULVERT,5.5,B,23.6198832229508,90.6083528852459,bridge
27,26,N1,22.596,PC Girder Bridge,Ashariarchar Bridge(R,224.82,B,23.6176407964705,90.6095506105882,bridge
28,27,N1,23.081,PC Girder Bridge,ASHIR CHAR (R,116.8,B,23.613587384385,90.6109029561497,bridge
29,28,N1,24.393,PC Box,MEGHNA BRIDGE,900.0,C,23.6027595885583,90.6155316965675,bridge
30,29,N1,26.115,Box Culvert,TATULTALA CULVERT,5.6,A,23.5929818827893,90.6279699370919,bridge
31,30,N1,26.452,Box Culvert,BAILAKANDI CULVERT,5.5,A,23.5908088547468,90.6302368598101,bridge
32,31,N1,27.12,Box Culvert,MALUAKANDI CULVEDRT,5.6,A,23.58631812254,90.6345094207093,bridge
33,32,N1,28.315,PC Girder Bridge,BHATIR CHAR BRIDGE,163.5,A,23.5779800248475,90.6419193089939,bridge
34,33,N1,29.842,Box Culvert,VITIKANDA - ANAR PUR CULVERT,34.7,A,23.5660033956521,90.6486237247282,bridge
35,34,N1,30.908,PC Girder Bridge,ALIPURA BRIDGE (L,26.3,B,23.5591910296296,90.6557475703703,bridge
36,35,N1,32.121,PC Girder Bridge,BOBARCHAR BRIDGE(L,28.9,A,23.5517421907216,90.6643538752577,bridge
37,36,N1,32.121,PC Girder Bridge,BOBAIRCHAR BRIDGE(R,28.9,A,23.5517421907216,90.6643538752577,bridge
38,37,N1,32.777,Box Culvert,PURRANBUICHE BOX CULVERT,9.1,A,23.5477377446428,90.6690554098214,bridge
39,38,N1,32.796,Box Culvert,NOYAPARA,5.2,A,23.5476246437499,90.669192065625,bridge
40,39,N1,33.591,PC Girder Bridge,Madhya Baushia Bridge(L,72.49,A,23.54268543125,90.6748292125,bridge
41,40,N1,34.111,Box Culvert,BOCTAR KANDI BOX CULVERT,5.1,C,23.5393910168,90.6784577888,bridge
42,41,N1,35.181,Box Culvert,.,9.5,A,23.5327751898617,90.6858701078341,bridge
43,42,N1,35.408,PC Girder Bridge,BORAKANDI BRIDGE(L,24.5,B,23.5313996605222,90.68744892596,bridge
44,43,N1,35.408,RCC Girder Bridge,CHAR BOWSHIA BRIDGE(R,24.5,B,23.5313996605222,90.68744892596,bridge
45,44,N1,35.707,Box Culvert,CHAR BOUSHEA (2,8.4,A,23.5301519626506,90.6897951837349,bridge
46,45,N1,37.01,PC Box,Daud Kandi Bridge,1408.8,C,23.5303844733,90.7024402743,bridge
47,46,N1,39.304,RCC Girder Bridge,BALDHA KHAL RCC GIDER BRIDGE,21.8,C,23.5324186,90.7242807234,bridge
48,47,N1,39.86,Box Culvert,MAIS PARA BOX CULVERT,6.0,B,23.5317587831999,90.7291780095,bridge
49,48,N1,42.936,RCC Girder Bridge,Shahid Nagor Bridge,16.5,C,23.5298050611,90.75825325,bridge
50,49,N1,45.164,Box Culvert,SARKAR BARI CULVERT,3.9,C,23.5307655282208,90.7800797251533,bridge
51,50,N1,46.871,Slab Culvert,AMIRABATH SLAB CULVERT,6.5,C,23.5308683409424,90.7918075171727,bridge
52,51,N1,48.384,RCC Bridge,Ginlatoly,15.9,C,23.5318234765,90.8110155135,bridge
53,52,N1,50.558,Box Culvert,RAIPUR BOX CULVERT,12.2,A,23.5329743291,90.8309774761999,bridge
54,53,N1,52.313,Box Culvert,AITAL BANGA BOX CULVERT,4.5,C,23.5229166652,90.8442186132,bridge
55,54,N1,56.006,RCC Girder Bridge,Illiot bazar Bridge,28.9,C,23.510087758207,90.8757204035353,bridge
56,55,N1,58.838,Box Culvert,KHAT GHOR BOX CULVERT,5.9,B,23.5060024341,90.9021745389,bridge
57,56,N1,60.83,Box Culvert,BAKRA BOX CULVERT,3.0,B,23.5056131416,90.9214660218,bridge
58,57,N1,63.098,Slab Culvert,MATIA BAZER,6.0,B,23.5024077848,90.9432418928,bridge
59,58,N1,63.538,Box Culvert,SONAPUR BOX CULVERT,3.0,A,23.5013551924,90.9473844088999,bridge
60,59,N1,66.178,Slab Culvert,KARON KHAL SLAB CULVERT,4.6,B,23.495896314,90.9715772516,bridge
61,60,N1,68.04,Box Culvert,MILL GHAT BOX CULVERT,4.5,A,23.4932728146,90.9887200416,bridge
62,61,N1,71.156,RCC Girder Bridge,CHANDINA- SHAHA PARA RCC GIDER GRIDGE,23.1,C,23.4868805937254,91.017566692647,bridge
63,62,N1,74.279,Box Culvert,CORI PAI BOX CULVERT,4.6,B,23.4817873233065,91.0463348850746,bridge
64,63,N1,75.312,Box Culvert,COREPAI BOX CULVERT,4.6,B,23.4817498298684,91.0563549686842,bridge
65,64,N1,76.481,Slab Culvert,NIMSHAR SLAB CULVERT,1.5,A,23.480613086,91.0674097692,bridge
66,65,N1,78.382,Slab Culvert,KABILA DUBARCHAR SLAB CULVERT,1.0,C,23.4776722851,91.0847406393,bridge
67,66,N1,80.949,Box Culvert,NAZIRA BOX CULVERT,3.0,B,23.4781159049382,91.1070332074074,bridge
68,67,N1,82.437,Box Culvert,TIPRA BAZAR BOX CULVERT,1.4,A,23.4794083880733,91.1238920825688,bridge
69,68,N1,82.989,Slab Culvert,AMTOLI SLAB CULVERT,2.9,A,23.479544924,91.129047144,bridge
70,69,N1,87.713,RCC Girder Bridge,Dhanpur Bridge,22.85,C,23.4436339598272,91.1493668151188,bridge
71,70,N1,91.092,RCC Girder Bridge,Paduar Bazar Bridge,35.97,C,23.4212487704918,91.1678943372365,bridge
72,71,N1,93.6,RCC Girder Bridge,Mostapur Bridge,27.35,C,23.4119324230158,91.1939029849206,bridge
73,72,N1,97.257,RCC Girder Bridge,Matigara Bridge,27.35,C,23.3976518197887,91.2234221346859,bridge
74,73,N1,100.938,RCC Girder Bridge,Suagazi Bridge.,30.48,A,23.3713647755,91.2450175414999,bridge
75,74,N1,103.456,RCC Girder Bridge,Lalbag Bridge.,22.88,C,23.3521636774381,91.2572910746724,bridge
76,75,N1,104.753,Box Culvert,CHANSIRI BOXCUIVERT,14.3,A,23.342671472,91.264485636,bridge
77,76,N1,106.519,Box Culvert,MIABAZAR BOX CULVERT,24.0,A,23.3301462324,91.2748792824,bridge
78,77,N1,108.125,Box Culvert,NOYA BAZER BOX CULVERT,9.2,A,23.3180696869138,91.2830867321701,bridge
79,78,N1,109.289,Box Culvert,DOLL BARI CULVERT,19.2,B,23.3083612731261,91.2865787034735,bridge
80,79,N1,109.897,Slab Culvert,DHARMA PUR SLAB CULVERT,2.6,B,23.3034306450331,91.2889770397351,bridge
81,80,N1,110.551,Box Culvert,LALGORE BEZER CULVERT,3.2,A,23.2979675271676,91.2910141369942,bridge
82,81,N1,111.509,Box Culvert,SUPUYA BOX CULVERT,13.4,A,23.2897066386454,91.2929584711155,bridge
83,82,N1,112.469,Box Culvert,BOWCHI BAZAR CULVERT,4.6,B,23.2821949258397,91.2966655096899,bridge
84,83,N1,113.717,Box Culvert,AMAN GONG SLAB CULVERT,6.3,B,23.27301895,91.3029661882,bridge
85,84,N1,115.052,Box Culvert,RANGAMATIA (1 BOX CULVERT,3.0,B,23.2618360940594,91.3070217386138,bridge
86,85,N1,115.326,Slab Culvert,RANGOWATIA 2 CULVERT,3.0,B,23.25941665,91.3073611,bridge
87,86,N1,115.525,Box Culvert,NOWA PARA BOX CULVERT,3.6,B,23.2576429774881,91.3076156494075,bridge
88,87,N1,116.074,Box Culvert,HARISHARDE CULVERT,4.5,B,23.2527463398104,91.3083926405213,bridge
89,88,N1,117.087,Box Culvert,SONAGATI BOX CULVERT,2.5,B,23.2443915125925,91.3114032292592,bridge
90,89,N1,117.269,Box Culvert,BALUJURI BOX CULVERT,19.2,B,23.2429040619631,91.3119739539877,bridge
91,90,N1,117.627,Box Culvert,BALUZURI 2 CULVERT,2.6,A,23.2397920309669,91.3125740860465,bridge
92,91,N1,118.049,Box Culvert,KALIR BAZAR BOX CULVERT,2.5,A,23.2360759516523,91.3129901976744,bridge
93,92,N1,118.856,Box Culvert,KALIA BAZER BOC CULVERT,3.1,B,23.2289195919642,91.3134220678571,bridge
94,93,N1,119.19,Box Culvert,CHAUDDAGARAM BOX CULVERT,2.6,B,23.2259184472573,91.3135697177215,bridge
95,94,N1,119.628,Box Culvert,CHADDAGRAM BAZAR BOX CULVERT,6.0,A,23.2220338977777,91.3137005933333,bridge
96,95,N1,120.634,Box Culvert,HAYDAR POLE BOX CULVERT,14.3,B,23.2131955721448,91.3153497403899,bridge
97,96,N1,121.567,Box Culvert,FALGUNCORA CULVERT,6.1,A,23.2050386287937,91.3163167282749,bridge
98,97,N1,122.603,Box Culvert,ATTOCK GRAM BOX CULVERT,6.1,A,23.1961887953757,91.3176705069364,bridge
99,98,N1,123.681,Box Culvert,BOSONTA PUR BOX CULVERT,6.1,C,23.1874350254302,91.3209051317399,bridge
100,99,N1,124.346,Box Culvert,BASHONTA PUR (2,9.5,B,23.1817958149837,91.3208787514658,bridge
101,100,N1,125.41,Box Culvert,NANKORA BOX CULVERT,3.1,B,23.1726272318681,91.3205774642857,bridge
102,101,N1,126.448,Box Culvert,ANDAJER BAZER BOX CULVERT,9.5,A,23.1635138669191,91.3215889464646,bridge
103,102,N1,127.673,Box Culvert,DIMATOLI (1 BOX CULVERT,6.3,B,23.1527364949367,91.3243178772152,bridge
104,103,N1,128.767,Box Culvert,DIMATOLY (2 BOX CULVERT,3.5,B,23.1436667679334,91.3266680470308,bridge
105,104,N1,129.291,Box Culvert,JAGARNATHPUR BOX CULVERT,6.1,B,23.1389893200345,91.3263585348877,bridge
106,105,N1,129.955,Box Culvert,JAGOT PUR BOX CULVERT,3.0,B,23.1332639685968,91.327546416481,bridge
107,106,N1,130.912,Box Culvert,HASO BOTHACH BOX CULVERT,6.5,A,23.1252363577777,91.3303863688888,bridge
108,107,N1,131.577,Slab Culvert,FOKIR BAZAR SLAB CULVERT,4.5,B,23.1196973774193,91.3328165129032,bridge
109,108,N1,132.079,Box Culvert,KAKKARA CULVERT,5.3,B,23.1158251554,91.335094485,bridge
110,109,N1,133.155,Box Culvert,Chanara Box Culvert,6.1,A,23.1074284451388,91.3400495436111,bridge
111,110,N1,133.873,Box Culvert,CHANGARPULL(II BOX CULVERT,3.1,B,23.1017563206521,91.343162998913,bridge
112,111,N1,134.426,Box Culvert,ADONCORA,9.5,B,23.0973512527272,91.3454956309091,bridge
113,112,N1,134.974,Box Culvert,PODOYA BOX CULVERT,3.1,A,23.0930298369186,91.3478308386627,bridge
114,113,N1,135.723,Box Culvert,FOEALTPARA BOX CULVERT,9.25,B,23.0870753710144,91.3512101492753,bridge
115,114,N1,136.375,Box Culvert,UTTOR KAIEATI CULVERT,3.5,A,23.0819909531309,91.3541811474383,bridge
116,115,N1,136.899,Box Culvert,KOKALI BOX CULVERT,14.2,B,23.0779647046997,91.3566005031331,bridge
117,116,N1,137.856,Box Culvert,DUTHOSHA BOX CULVERT,6.1,B,23.070198184,91.3603022,bridge
118,117,N1,138.953,Box Culvert,MOHAMMAD ALI MAZAR,4.0,B,23.0607473333333,91.3618624619047,bridge
119,118,N1,141.531,Box Culvert,FATAPUR BOX CULVERT,10.8,A,23.0379728055555,91.3656784724359,bridge
120,119,N1,142.793,Slab Culvert,DEBIPUR SLAB CULVERT,1.6,A,23.0269801170731,91.3655004839721,bridge
121,120,N1,144.939,Box Culvert,CHARIPUR CULVERT.,3.4,A,23.0124048410423,91.3779796149837,bridge
122,121,N1,147.296,Box Culvert,RAMPUR BOX CULVERT,1.5,A,22.999248756,91.3957752,bridge
123,122,N1,148.151,RCC Girder Bridge,RAMPUR BRIDGE,23.4,A,22.9947280792802,91.4022894900763,bridge
124,123,N1,148.174,PC Girder Bridge,Rampur Bridge(R,22.15,A,22.9945936133042,91.4024539137404,bridge
125,124,N1,148.495,Box Culvert,.,1.9,A,22.9927169359869,91.4047486961832,bridge
126,125,N1,153.843,PC Girder Bridge,LAMUA BRIDGE,94.05,B,22.9614487369369,91.4429962027027,bridge
127,126,N1,158.031,Box Culvert,FAZAILPUR BOXCULVERT,1.5,A,22.9486038666666,91.4794993833333,bridge
128,127,N1,160.379,PC Girder Bridge,MUHURI BRIDGE,191.5,B,22.9496126090047,91.502066899526,bridge
129,128,N1,165.183,PC Girder Bridge,DumGhat Bridge(L,222.43,A,22.9149647061403,91.5262895350877,bridge
130,129,N1,165.183,PC Girder Bridge,DHOOM GHAT PC GIRDER,220.6,B,22.9149647061403,91.5262895350877,bridge
131,130,N1,165.825,Box Culvert,BUMGAT BOXCULVERT,6.1,A,22.9097128884012,91.5289285034482,bridge
132,131,N1,166.479,Slab Culvert,BOROYAR PARA SLUB CULVERT,3.0,A,22.9042462955223,91.5316297776119,bridge
133,132,N1,167.963,Box Culvert,BAROYARHAT BOX CULVERT,3.0,A,22.8916386,91.5354719,bridge
134,133,N1,169.933,Box Culvert,UTTOR SONAPAR BOX CULVERT,4.3,A,22.8746986941176,91.5408836647058,bridge
135,134,N1,170.174,Box Culvert,CHAIRMEN BARI BOX CULVERT,2.0,A,22.872722034892,91.5415958766187,bridge
136,135,N1,170.725,Box Culvert,MADDAM SONAPAR(1 BOX CULVERT,1.5,A,22.8680563702127,91.5432963340425,bridge
137,136,N1,171.554,Box Culvert,DHARBAR TILA CULVERT,4.3,A,22.8609876872509,91.5451551717131,bridge
138,137,N1,171.728,Box Culvert,MADDUM SONAPHAR-3,2.0,A,22.8594847882591,91.5454799987854,bridge
139,138,N1,172.122,Box Culvert,MAMAFOUN ASTANA CULVERT,1.5,A,22.8560565672727,91.5457188709091,bridge
140,139,N1,172.23,Slab Culvert,MAMAFAKIR ASTANA SLAB CULVERT,1.5,A,22.8551475327433,91.5458221849557,bridge
141,140,N1,172.969,Box Culvert,MASTANNAGOR BONCUL(1,8.5,A,22.8486172764705,91.5463706117647,bridge
142,141,N1,173.35,Box Culvert,MUSTAU NOGAR(2,3.0,A,22.8453914894736,91.5474689210526,bridge
143,142,N1,173.585,Box Culvert,MASTARI HAGOR 3 CULVERT,1.5,A,22.8434551375,91.54814955625,bridge
144,143,N1,173.859,Box Culvert,MUSTAN NAGAR -4,3.0,A,22.8410943334277,91.5488096951841,bridge
145,144,N1,174.804,Box Culvert,RAIPUR BOX CUL-1,3.0,A,22.8327467692419,91.5501035014577,bridge
146,145,N1,175.013,Box Culvert,RAIPUR (2 BOX CULVERT,4.5,A,22.8309613422018,91.5505028545871,bridge
147,146,N1,175.785,Box Culvert,PURPU DURGAPURE BOX CUL,12.4,C,22.8243706577981,91.5526915454128,bridge
148,147,N1,177.247,Box Culvert,MUCHIPOOL CULVERT,9.5,B,22.811563437647,91.5562562129411,bridge
149,148,N1,179.363,Box Culvert,MIRSARAI BOX CUL,4.5,A,22.7941813523326,91.5629612622718,bridge
150,149,N1,180.85,RCC Girder Bridge,MIRAISORI BRIDGE,23.2,B,22.7821968918511,91.5691025661971,bridge
151,150,N1,181.825,Box Culvert,Mirsorai(2 box culvert,6.0,A,22.774197092,91.5728737519999,bridge
152,151,N1,182.318,Box Culvert,IANAINIPOL BOX CULVERT.,9.7,A,22.770251666098,91.5750905211087,bridge
153,152,N1,183.296,Box Culvert,BOKIMTOLA BOX CULVERT,4.0,A,22.7630626913907,91.5804538821192,bridge
154,153,N1,184.654,Box Culvert,VARTAKA BOX CULVERT,12.9,A,22.7535653245121,91.5886004236585,bridge
155,154,N1,185.058,Box Culvert,VARTAGIA BOX CULVERT,3.0,A,22.7506393495689,91.5908840370689,bridge
156,155,N1,185.842,Box Culvert,BOTHAGIA (-3 BOX CULVERT,8.1,B,22.7445136523437,91.5943998915364,bridge
157,156,N1,188.35,Box Culvert,NIAZAMPUR BOX CULVERT,3.0,A,22.723316755473,91.6024331404452,bridge
158,157,N1,189.058,Box Culvert,MIRJAPUR BOX CULVERT,3.0,A,22.7178243865384,91.6057623307692,bridge
159,158,N1,189.13,Box Culvert,MIRZAPUR (2 BOX CULVERT,3.0,A,22.7172707342307,91.6061084846153,bridge
160,159,N1,189.58,Box Culvert,ISAMATI BOX CULVERT,19.2,C,22.7138727382812,91.6082352218749,bridge
161,160,N1,191.107,Box Culvert,DUKHIN UTHPAR BOX CULVERT,19.2,A,22.701816503937,91.6149734608923,bridge
162,161,N1,192.408,Box Culvert,VANGGARPOL BOX CULVERT,4.2,A,22.6912517148148,91.6201690574074,bridge
163,162,N1,192.95,Box Culvert,BORO KAMALDA BOX CULVERT,3.2,A,22.6868697647058,91.6220385823529,bridge
164,163,N1,194.149,Box Culvert,TARAT BOX CULVERT,6.0,A,22.6769772991044,91.6268169453731,bridge
165,164,N1,194.998,Box Culvert,Tarial Bazar Culvert,3.0,A,22.6699594391304,91.6293531695652,bridge
166,165,N1,195.501,Box Culvert,MIRJA PUR (3 BOX CULVERT,3.0,A,22.6657838981081,91.6311293581081,bridge
167,166,N1,196.038,Box Culvert,SATU DURUAR HAT BOX CULVERT,3.0,A,22.6615956814814,91.6335257425926,bridge
168,167,N1,196.925,Box Culvert,RONA SORA CULVERT,3.1,A,22.6547124294117,91.6379261764705,bridge
169,168,N1,197.39,Box Culvert,NUNA CHARA BOX CULVERT,4.6,A,22.6510709547445,91.6400341194647,bridge
170,169,N1,197.846,Box Culvert,BOTTOL BOX CULVERT,12.4,A,22.6474561112311,91.6419171170626,bridge
171,170,N1,199.279,Box Culvert,KACHAI PATH BOX CULVERT,3.0,A,22.636096590965,91.648209240657,bridge
172,171,N1,199.502,Box Culvert,KACHAI POTTI BOX CULVERT,3.0,A,22.6343285718685,91.6492077265913,bridge
173,172,N1,200.277,Box Culvert,EGOL PUR BOX CULVERT,3.0,A,22.6281666352941,91.6527578258312,bridge
174,173,N1,200.575,Box Culvert,UTTOR SITAKONDO BAZAR BOX CULVERT,6.1,B,22.6258323373493,91.6541857554217,bridge
175,174,N1,200.918,Slab Culvert,SITAKUNDA SLAB,3.0,A,22.6230461711711,91.6554672531531,bridge
176,175,N1,201.52,Box Culvert,MOHADAB PUR BOX CULVERT,3.0,A,22.6177563490118,91.6580589438735,bridge
177,176,N1,201.999,Slab Culvert,PURBOMOHADAB PUR SLAB CULVERT(L,4.6,A,22.6149899686274,91.6602670503268,bridge
178,177,N1,201.999,Box Culvert,DULAHAJRA(R,4.6,A,22.6149899686274,91.6602670503268,bridge
179,178,N1,202.435,Box Culvert,MADICAL MORE CULVERT,3.0,A,22.6117556741935,91.6625686731182,bridge
180,179,N1,203.457,Box Culvert,DOKHIN MOHADEB PUR BOX CULVERT,2.95,A,22.6038394411764,91.6673745588235,bridge
181,180,N1,203.651,Box Culvert,KALIAVA BOX CULVERT,4.5,B,22.6023506949579,91.6683367336134,bridge
182,181,N1,204.342,Box Culvert,SKM BOX CULVERT(1,9.3,B,22.5971665766519,91.671819207489,bridge
183,182,N1,204.765,Box Culvert,HATILOTA BOX CULVERT,4.5,A,22.5938881803921,91.6738889367647,bridge
184,183,N1,205.615,RCC Girder Bridge,BAROCONDO BRIDGE,22.25,C,22.5870350167767,91.6770444686922,bridge
185,184,N1,206.3,Box Culvert,BAROGINDO CULVERT,2.5,A,22.5815086746355,91.6795390413994,bridge
186,185,N1,206.866,Box Culvert,BARO-CUNDHOW BOX CULVERT,10.2,A,22.5767930229508,91.68162274153,bridge
187,186,N1,207.64,Box Culvert,PHPMORE BON CULVERT,3.0,A,22.5702905930578,91.6840096656198,bridge
188,187,N1,207.913,Box Culvert,CHARA KANDI BOX CULVERT,8.2,A,22.5679968064462,91.6846866604958,bridge
189,188,N1,208.1,Box Culvert,R. R TEXTAIL BOX CULVERT,4.5,A,22.5664212916363,91.6851826636363,bridge
190,189,N1,209.024,Box Culvert,OHIDPUR BOX CULVERT,4.1,A,22.5585210862619,91.687506242492,bridge
191,190,N1,209.514,RCC Girder Bridge,BARSH BARIA BRIDGE,21.6,B,22.5543319776357,91.6887963149094,bridge
192,191,N1,210.476,Box Culvert,SOUTH BALSH KHALI BOX CULVERT,3.0,A,22.5467727210909,91.6926260603636,bridge
193,192,N1,210.776,Box Culvert,DOKHIN BASH-KHALI BOX CULVERT,5.2,A,22.5444897756363,91.6941310785454,bridge
194,193,N1,211.433,Box Culvert,SOTTANA MONDIR CULVERT,8.2,A,22.5390300234693,91.6965452744898,bridge
195,194,N1,212.483,Box Culvert,GULAM JUTE MILE BOX CULVERT,3.0,A,22.5303678038461,91.7004641228571,bridge
196,195,N1,213.386,Arch Masonry,KYSTELGATE ARCH,16.3,B,22.5229359167189,91.7038366163009,bridge
197,196,N1,214.807,RCC Girder Bridge,BORO KUMIRA BRIDGE,27.0,C,22.5113471164122,91.7087907889313,bridge
198,197,N1,215.467,Box Culvert,ROYL CIMINT GATE CULVETRT,4.5,A,22.5060220437735,91.7112848218867,bridge
199,198,N1,216.196,RCC Girder Bridge,GORA MARA RCC GIRDER BRIDGE,17.6,A,22.5000858335766,91.7141504905109,bridge
200,199,N1,217.377,Box Culvert,GORA MARI BOX CULVERT,3.0,B,22.4904405976324,91.7182726733934,bridge
201,200,N1,217.942,Box Culvert,BARAOWLLA BOX CULVERT,4.5,A,22.4855480068965,91.7195309517241,bridge
202,201,N1,218.441,RCC Girder Bridge,Baro Aulia,24.33,D,22.4811642144766,91.7203633632516,bridge
203,202,N1,219.427,Box Culvert,HATIBORI BOX CULVERT,6.0,A,22.4728530893544,91.7232633541336,bridge
204,203,N1,220.725,RCC Girder Bridge,Modonhat Bridge,24.32,D,22.4624386352,91.7285307,bridge
205,204,N1,222.357,Box Culvert,KODOM RASUL BOX CULVERT,3.0,A,22.4488628503871,91.7342823894358,bridge
206,205,N1,222.687,RCC Girder Bridge,SALAKHARPAD BRIDGE,26.3,C,22.4460793332411,91.7353674287057,bridge
207,206,N1,223.743,Box Culvert,HASNA BAD BOX CULVERT,3.0,A,22.4375035216216,91.7386659473513,bridge
208,207,N1,224.053,RCC Girder Bridge,VATERIE BRIDGE,40.0,A,22.4350737918918,91.7396527192432,bridge
209,208,N1,225.702,PC Girder Bridge,DHAMAKHALI BRIDGE,35.1,B,22.4220415536,91.7480209792,bridge
210,209,N1,228.029,Box Culvert,VATIARI CULVERT,5.0,A,22.4030145445,91.75657411625,bridge
211,210,N1,228.797,Box Culvert,T. B HOSPITAL GATE BOX CULVERT,3.0,A,22.3963398830265,91.7582551580777,bridge
212,211,N1,229.203,PC Girder Bridge,GAMMON BRIDGE,18.0,A,22.3927175345622,91.7590882138248,bridge
213,212,N1,230.13,Box Culvert,PAKKA MATA BOX CULVERT,3.0,A,22.38524588272,91.76250565776,bridge
214,213,N1,230.921,Box Culvert,GLAXO BOX CULVERT,8.3,A,22.3797011826666,91.7670476533333,bridge
215,214,N1,231.966,Box Culvert,CORNAIL HAT BOX CULVERT,3.0,A,22.3696841276595,91.7739258709219,bridge
216,215,N1,242.016,Box Culvert,BOALIA BOX CULVERT,4.65,C,22.3599057425992,91.8522694918171,bridge
217,216,N1,242.898,RCC Girder Bridge,BAKULIA BRIDGE,14.7,B,22.3522674714754,91.852622049836,bridge
218,217,N1,244.367,RCC Girder Bridge,5 No hafez bazar Bridge,39.67,C,22.3395393508599,91.8533871579852,bridge
219,218,N1,244.856,RCC Girder Bridge,Tulatuli Bridge,40.38,C,22.3357673216494,91.8538536927835,bridge
220,219,N1,244.975,RCC Girder Bridge,Rajakhali Bridge,49.31,C,22.3349153368556,91.8533979043814,bridge
221,220,N1,246.02,Truss With Timber Deck,Hajrath Sha Amanath Satu,914.0,C,22.3266451369152,91.852759390139,bridge
222,221,N1,247.637,RCC Girder Bridge,SHIKALBAHA BRIDGE,11.0,C,22.3129265129032,91.856181916129,bridge
223,222,N1,248.499,Box Culvert,SHIKALBAHA,15.2,C,22.306457756,91.860449028,bridge
224,223,N1,249.04,Box Culvert,SOUTH MITTACHORI,3.0,A,22.3026235524271,91.8635646970873,bridge
225,224,N1,249.348,Box Culvert,SHIKALBAHA BOX CULVERT,5.7,B,22.3002851293515,91.8652980307167,bridge
226,225,N1,249.674,Box Culvert,KADUMTOLI CULVERT,3.0,A,22.2975350260563,91.866363031514,bridge
227,226,N1,250.215,Slab Culvert,ISLAMPUR CULVERT,1.5,A,22.2932366309133,91.8684360651053,bridge
228,227,N1,250.519,Box Culvert,NOLBILA CULVERT,3.0,A,22.2916421411764,91.8702911411764,bridge
229,228,N1,250.841,Box Culvert,SHIKALBAHA MORE,3.0,A,22.2926079302013,91.8730201176733,bridge
230,229,N1,251.281,Box Culvert,SHIKALBAHA BOX CULVERT,3.0,A,22.2944653526717,91.876717971374,bridge
231,230,N1,251.538,PC Girder Bridge,SHIKALBAHA BRIDGE,116.5,C,22.2962698699619,91.8807528022813,bridge
232,231,N1,252.506,Box Culvert,SHANTERHAT CULVERT,3.0,B,22.2988369230769,91.8873512822898,bridge
233,232,N1,253.777,Box Culvert,SHANTERHAT BOX CULVERT,3.1,B,22.3021025781938,91.8992582823788,bridge
234,233,N1,254.333,Box Culvert,KUSUMPUR BOX CULVERT,3.0,A,22.3035365502293,91.9044227217889,bridge
235,234,N1,255.505,Box Culvert,tassi bazer(R,3.0,A,22.3083189877358,91.9142153009434,bridge
236,235,N1,255.505,Box Culvert,MUNSHA BOX CULVERT(L,10.8,B,22.3083189877358,91.9142153009434,bridge
237,236,N1,256.378,Box Culvert,MONSHA CULVERT,3.0,A,22.3137546831094,91.9203176378118,bridge
238,237,N1,256.89,Box Culvert,UTTOR SONAPUR,3.0,A,22.3157468089473,91.9243524131578,bridge
239,238,N1,257.94,Steel Beam & RCC Slab,Pirol,5.3,A,22.3137565607999,91.9339832312,bridge
240,239,N1,259.795,Box Culvert,UZIRPUR HIGH SCHOOL,3.0,A,22.3084394099236,91.9483886979643,bridge
241,240,N1,262.116,PC Girder Bridge,PATIYA BRIDGE,50.8,C,22.3006016043999,91.9658457726,bridge
242,241,N1,264.369,Box Culvert,PALYA BUS STATION,12.4,A,22.2911451997412,91.9833668252263,bridge
243,242,N1,265.483,PC Girder Bridge,SRIMI BRIDGE,60.5,C,22.2859320161666,91.992309198,bridge
244,243,N1,266.424,Box Culvert,KOMOLMUNSHE HAT BOX CULVERT,14.0,B,22.2811424692972,91.9995571696216,bridge
245,244,N1,267.818,Box Culvert,KHORNA CULVERT,3.0,A,22.2710895749999,92.00559725,bridge
246,245,N1,268.954,RCC Girder Bridge,KHORNA BVS STATION,14.8,C,22.2611613745967,92.0073035838709,bridge
247,246,N1,269.199,Box Culvert,AJIMPUR CUL,9.8,C,22.2590515857142,92.0081111238095,bridge
248,247,N1,269.721,Box Culvert,MOJAFFARABAD,9.2,A,22.2549374824626,92.0103021287313,bridge
249,248,N1,269.99,Box Culvert,MOJAFFORABAD BOX CULVERT,6.0,A,22.2531199613981,92.0119718729483,bridge
250,249,N1,270.642,Box Culvert,MOJAFFORABAD,9.4,A,22.2487130149162,92.0158341025875,bridge
251,250,N1,271.89,Box Culvert,ROWSONAT CUL,14.0,A,22.24038615762,92.0217918336116,bridge
252,251,N1,272.356,Box Culvert,KANCHANAGAR CUL,14.0,A,22.2366345532374,92.0232647489208,bridge
253,252,N1,273.008,Steel Beam & RCC Slab,Kanchon Nagar Bridge,12.7,B,22.2314978226851,92.0249656611111,bridge
254,253,N1,273.443,Box Culvert,NORTH JOARA PAKKAR DOKAN,9.4,B,22.2260608528604,92.0264650356979,bridge
255,254,N1,273.878,Box Culvert,GASBAREA BOX CULVERT,14.0,A,22.2222719897959,92.0273785979591,bridge
256,255,N1,274.66,Box Culvert,GASBAREA COLLEGE BOX CULVERT,9.2,A,22.2155873504854,92.0290230394174,bridge
257,256,N1,275.943,RCC Girder Bridge,Mazar Point Bridge,50.8,D,22.2071026538461,92.03633246993,bridge
258,257,N1,276.281,Box Culvert,KHOLGHAR CUL,9.2,B,22.2049837597806,92.0383312340036,bridge
259,258,N1,280.299,Box Culvert,NOYARHAT,12.3,B,22.1739178955307,92.0532925435754,bridge
260,259,N1,282.994,RCC Girder Bridge,Sangu Bridge,211.0,B,22.1586272806451,92.0682063096774,bridge
261,260,N1,284.134,Box Culvert,KATGOR CULVERT,9.2,A,22.1498523145631,92.0696330718446,bridge
262,261,N1,285.58,Box Culvert,MOULOVER DOKAN,12.4,A,22.1369522329341,92.0699301281437,bridge
263,262,N1,286.08,Box Culvert,PATATR PULL CULVERT,15.4,A,22.1325208428571,92.0701565366459,bridge
264,263,N1,286.378,PC Girder Bridge,PATANER PULL(BRIDGE,34.6,A,22.1299160285714,92.0706024714285,bridge
265,264,N1,286.631,RCC Girder Bridge,Noyakhalar Muk Bridge,27.9,A,22.1277338010309,92.0710012276288,bridge
266,265,N1,287.144,Box Culvert,NOYAKHALARMUK,15.4,A,22.1230775989717,92.071701048329,bridge
267,266,N1,287.487,Box Culvert,NOYA KHALAR MUK (KARANIERHAT BOX CULVERT,20.4,A,22.1204875006655,92.0719705134775,bridge
268,267,N1,288.329,Box Culvert,KARANERHAT CULVERT,5.0,A,22.1133524851063,92.0726869042553,bridge
269,268,N1,289.889,Box Culvert,KARANERHAT CULVERT,7.2,A,22.09827857,92.074800422,bridge
270,269,N1,290.719,Box Culvert,KOACHIA(MADARBHI,11.2,A,22.0935775004504,92.0805047995495,bridge
271,270,N1,292.426,Box Culvert,MITADIGI ACADEMY,2.0,A,22.0840668315789,92.093196937799,bridge
272,271,N1,293.134,Box Culvert,MITADIGI,12.6,A,22.080520608,92.0984855314285,bridge
273,272,N1,294.534,RCC Girder Bridge,Raj Ghata Bridge,30.3,B,22.0695600813559,92.1042754237288,bridge
274,273,N1,294.77,Box Culvert,THAKUR DIGI BOX CULVERT,2.0,A,22.0679099558303,92.1055530035335,bridge
275,274,N1,295.295,PC Girder Bridge,KHORIANAGAR BRIDGE,38.8,A,22.0637567157894,92.1071061094736,bridge
276,275,N1,295.625,Box Culvert,NOYA PARA BOX CULVERT,2.5,A,22.06088615,92.10773337,bridge
277,276,N1,296.135,Box Culvert,PODUA NOYA PARA BOX CULVERT,8.2,A,22.0565051155339,92.1090854592233,bridge
278,277,N1,296.647,Box Culvert,PODUA BAZAR BOX CULVERT,12.6,A,22.0519296419354,92.1090613887096,bridge
279,278,N1,297.034,Box Culvert,PODUA BAZAR BOX CULVERT,6.0,A,22.0483713234624,92.1081938519362,bridge
280,279,N1,297.569,Box Culvert,BARO AWLIA(R,13.64,A,22.0440962566176,92.1070629529411,bridge
281,280,N1,298.405,Box Culvert,TALOCKDNR PARA BOX CULVERT,2.5,A,22.0375898525773,92.1039891092783,bridge
282,281,N1,299.057,Box Culvert,AMIRABAD BOX CULVERT,2.5,A,22.031864884656,92.1041246666666,bridge
283,282,N1,299.434,PC Girder Bridge,Amirabad Bridge,68.8,A,22.0287013636363,92.1034293272727,bridge
284,283,N1,299.756,Box Culvert,AMIRABAD LOHAGOR BOX CULVERT,2.0,A,22.0260045474972,92.1026967443826,bridge
285,284,N1,300.406,Box Culvert,AMIRABAD LOHAGORA BOX CULVERT,10.0,A,22.0204980278439,92.1014277681473,bridge
286,285,N1,302.237,Box Culvert,LOHAGORA L.S BOX CULVERT,3.0,A,22.0078200503225,92.0927765812903,bridge
287,286,N1,302.729,Box Culvert,DIGIRPARK BOX CULVERT,12.6,A,22.0041726139784,92.0905686346236,bridge
288,287,N1,303.237,Box Culvert,DIGIRPAR BOX CULVERT,6.2,A,22.00042964,92.0883193766666,bridge
289,288,N1,303.782,Box Culvert,ZADUNAGOR FILLING BOX CULVERT,3.0,A,21.9958359641681,92.0874589126142,bridge
290,289,N1,303.793,Box Culvert,ZADUNAPUR SHAPIR FILLING STATION -(2 BOX CULVERT,12.4,A,21.9957410021937,92.0874460645338,bridge
291,290,N1,304.217,PC Girder Bridge,KHASMOHAL ADUNAICR PC GIDER BRIDGE,58.8,A,21.9922334387096,92.0863582073732,bridge
292,291,N1,304.449,Box Culvert,ZADUNAGOR BUS STATION BOX CULVERT,14.2,A,21.990280244375,92.08568596625,bridge
293,292,N1,304.857,RCC Girder Bridge,Adunagar Bridge,22.0,B,21.9870408741379,92.0839943655172,bridge
294,293,N1,305.527,RCC Girder Bridge,Hatirpul Bridge,22.4,B,21.9819040437735,92.080773326415,bridge
295,294,N1,305.794,Box Culvert,HATIAR PULL BOX CULVERT,18.7,A,21.9804623633858,92.0788716271653,bridge
296,295,N1,306.139,Box Culvert,SHIX DAR PARA BOX CULVERT,3.5,A,21.979298574269,92.0758492263157,bridge
297,296,N1,307.229,Box Culvert,MUSKAMPANI PARA BOX CULVERT,2.5,A,21.9738684029498,92.0683204789577,bridge
298,297,N1,307.981,Box Culvert,AODU NAGOR (2 BOX CULVERT,1.5,A,21.9689581196808,92.0641501117021,bridge
299,298,N1,308.652,RCC Girder Bridge,Rataykul Bridge,22.4,A,21.9622138572549,92.0633168764705,bridge
300,299,N1,309.038,Box Culvert,BONPUKR PARA BOX CULVERT,8.2,A,21.9592401112903,92.0652791298387,bridge
301,300,N1,309.355,Box Culvert,BON PUKUL PARA BOX CULVERT,3.0,A,21.9580321636363,92.0663932818182,bridge
302,301,N1,309.971,RCC Girder Bridge,Santi Bridge,22.3,B,21.9520795406909,92.0678138084453,bridge
303,302,N1,310.723,Box Culvert,SANTI BOX CULVERT,1.4,A,21.9453993720173,92.0669286609544,bridge
304,303,N1,311.886,Box Culvert,BRICK FIELD BOX CULVERT,4.5,A,21.9360290154471,92.0625427235772,bridge
305,304,N1,312.138,Box Culvert,BACK FILD BOX CULVERT,9.3,A,21.9339454415019,92.0616661541501,bridge
306,305,N1,312.354,Box Culvert,AZIZNAGOR FOREST BOX CULVERT,4.5,A,21.9323086726114,92.0608009579617,bridge
307,306,N1,312.609,Box Culvert,AZIZ NOGOR FOREST BOX CULVERT,4.7,A,21.93038125,92.0596840375,bridge
308,307,N1,313.947,Box Culvert,AZIZNAGOR BOX CULVERT,2.0,A,21.9179119605128,92.0597362988034,bridge
309,308,N1,314.144,Box Culvert,AZIZ NOGAR BOX CULVERT,3.0,A,21.9167591663366,92.0599899313531,bridge
310,309,N1,314.502,Box Culvert,AZIZ NAGOR 1,4.0,A,21.9140727206278,92.0605472089686,bridge
311,310,N1,315.009,Box Culvert,AZIZ NAGOR 2,9.2,A,21.909622912133,92.0605661266144,bridge
312,311,N1,317.001,Box Culvert,HARBHANG CHOR,13.64,A,21.8910236519337,92.0597010756906,bridge
313,312,N1,318.11,Box Culvert,GHOIL MARA BOX CULVERT,9.3,A,21.8812215213685,92.0590015447779,bridge
314,313,N1,318.796,Box Culvert,HARBANG,3.0,A,21.8751197401574,92.0591098413385,bridge
315,314,N1,320.189,Box Culvert,HARBANG,3.0,A,21.8628351415656,92.0594848712238,bridge
316,315,N1,320.513,PC Girder Bridge,Harbang Chora Bridge,56.2,C,21.8599725797297,92.0601907085585,bridge
317,316,N1,321.305,Box Culvert,ALIPUR BOX CULVERT,14.3,A,21.8529287900552,92.0609576198894,bridge
318,317,N1,321.536,Box Culvert,HARBANG,2.1,A,21.8508595323144,92.0609491344978,bridge
319,318,N1,322.5,Box Culvert,HAR BAG BOX CULVERT,4.5,A,21.8429700741784,92.0635984638497,bridge
320,319,N1,322.823,Box Culvert,HAR BAG BOX CULVERT,3.0,A,21.8403935683229,92.0649325472049,bridge
321,320,N1,323.619,Box Culvert,ATKOTA,15.8,A,21.8341033152866,92.0682735910828,bridge
322,321,N1,324.331,Box Culvert,AKOTA BAZAR BOX CULVERT,7.3,A,21.8280258214285,92.0713035547619,bridge
323,322,N1,324.607,RCC Girder Bridge,Bodoitola Bridge,45.0,C,21.8257831806122,92.0723466282313,bridge
324,323,N1,325.153,Box Culvert,BODAITALI BOX CULVERT,12.4,A,21.8211428750483,92.0740201388781,bridge
325,324,N1,325.49,Box Culvert,BODOITOLI BOX CULVERT,14.0,A,21.8181692602209,92.0739442353591,bridge
326,325,N1,327.312,Box Culvert,BANIYAR CHORA,14.0,A,21.8034238025641,92.0772322128205,bridge
327,326,N1,329.084,Box Culvert,NOL BELA-1 BOX CULVERT,20.6,A,21.787854008387,92.0788540064516,bridge
328,327,N1,329.181,Box Culvert,NOL BELA BOX CULVERT,21.0,A,21.786997484,92.0789493159999,bridge
329,328,N1,329.499,Box Culvert,NOLBELA BOX CULVERT,14.2,B,21.7841953311111,92.0792425355555,bridge
330,329,N1,330.931,Box Culvert,DIDDA BAZAR BOX CULVERT,15.7,A,21.7735339222222,92.0839144733333,bridge
331,330,N1,331.259,RCC Girder Bridge,Mathamuhuri Bridge,294.15,D,21.7715943354948,92.0821099546075,bridge
332,331,N1,335.192,Box Culvert,BANDI BAZAR BOX CULVERT,9.3,B,21.7401466184971,92.0826243745664,bridge
333,332,N1,335.38,Box Culvert,KUMARIKOOL BOX CULVERT,14.0,A,21.7385629191489,92.0831876319149,bridge
334,333,N1,336.054,Box Culvert,PASIYAKALI BOX CULVERT,5.2,A,21.7326068595588,92.0837488330882,bridge
335,334,N1,336.237,RCC Girder Bridge,Pasiyakali Bridge,38.4,C,21.7309878314917,92.0838156441988,bridge
336,335,N1,337.019,Box Culvert,HASIRUGIGI,12.6,A,21.7240739341074,92.083544148476,bridge
337,336,N1,338.859,Box Culvert,CHOHAJANYA (1,12.8,A,21.7092513759013,92.0806750603415,bridge
338,337,N1,339.648,Box Culvert,CHOHAJANIYA (2,9.3,A,21.7028300370967,92.0786456251612,bridge
339,338,N1,342.77,RCC Girder Bridge,Polia Fari Bridge,58.57,C,21.676279289928,92.0768074748201,bridge
340,339,N1,343.243,Box Culvert,DULAHAJARA (SAFARI PARK,14.0,A,21.6721049602836,92.0763992531915,bridge
341,340,N1,344.209,Box Culvert,DULAHAJARA CULVERT,3.5,A,21.6629404415143,92.075071645953,bridge
342,341,N1,344.531,PC Girder Bridge,Dulahajar Bridge,54.03,C,21.6600543017045,92.0751025664772,bridge
343,342,N1,345.592,PC Girder Bridge,Boyragir Khil Bridge,60.03,C,21.6508560658227,92.0735619202531,bridge
344,343,N1,345.911,Box Culvert,PAGOLARIBIL,4.5,A,21.6480847609561,92.0733292227091,bridge
345,344,N1,349.092,Box Culvert,KHUTAKHALI,1.45,B,21.6225351880109,92.0737034768392,bridge
346,345,N1,349.759,RCC Girder Bridge,khutakhali bazar,45.3,B,21.618376660401,92.0691713375939,bridge
347,346,N1,350.674,Box Culvert,FULCHARI (NEWPARA,7.0,A,21.6065189670012,92.0623070695106,bridge
348,347,N1,350.99,Box Culvert,FULCHARI (NEWPARA,5.2,A,21.6051753127979,92.0621198087829,bridge
349,348,N1,351.628,Box Culvert,FULCHARI CULVERT,9.3,A,21.5985935301507,92.061801241206,bridge
350,349,N1,352.064,Box Culvert,FULCHARI BAZAR,14.0,A,21.5960736973421,92.0614095408637,bridge
351,350,N1,352.641,Box Culvert,NAPITE KHALI CULVERT,1.4,A,21.5894309740196,92.0630313509804,bridge
352,351,N1,353.162,Box Culvert,NAPITE KHALI,4.5,C,21.5876028,92.0649047857142,bridge
353,352,N1,353.694,Box Culvert,EAST NAPITL KHAL BOX CULVERT,2.5,A,21.5830741250341,92.0657158465116,bridge
354,353,N1,354.739,Box Culvert,NAEK KHALI BOX CULVERT,12.4,A,21.5744075162901,92.0707446712247,bridge
355,354,N1,356.261,Box Culvert,KHODIA BARI PRIMARY BOX CULVERT,9.5,A,21.5623201688888,92.0698139251851,bridge
356,355,N1,356.517,Box Culvert,ISLAMABAD KHODIABARI BOX CULVERT,4.8,A,21.5603042595174,92.0691476,bridge
357,356,N1,356.631,Box Culvert,ISLAMABAD KHODIA BARI BOX CULVERT,7.0,A,21.5594892512064,92.0689481,bridge
358,357,N1,357.264,PC Girder Bridge,EIDGAON BAZAR PC GIDER BRIDGE,46.0,A,21.5554256122448,92.0679503244898,bridge
359,358,N1,358.03,PC Girder Bridge,eidgaon,44.6,C,21.5470666065573,92.0668953754098,bridge
360,359,N1,360.345,Box Culvert,SHAT GOREA PARA BOX CULVERT,14.0,A,21.5255297395348,92.0653252244186,bridge
361,360,N1,360.551,Box Culvert,KALIRCHARA BOX CULVERT,8.0,A,21.5237332279069,92.0655747598837,bridge
362,361,N1,360.89,Box Culvert,KALIRCHARA BAZAR BOX CULVERT,15.4,A,21.5207709407407,92.0661440629629,bridge
363,362,N1,361.043,Box Culvert,KALIRCHAR,5.0,A,21.5195088091891,92.0666746302702,bridge
364,363,N1,361.751,Box Culvert,RASHIDNAGAR,3.0,A,21.5137419731132,92.069340890566,bridge
365,364,N1,362.168,Box Culvert,ROSHIDNAGAR CULVERT,2.5,A,21.5104396976562,92.0708606554687,bridge
366,365,N1,362.691,Box Culvert,DOLERCHARA CULVERT,7.5,A,21.5065069274647,92.0733026419014,bridge
367,366,N1,362.889,Box Culvert,DOLERCHARA CULVERT,12.4,A,21.5051319429577,92.0744452552816,bridge
368,367,N1,364.056,Box Culvert,ROSHIDNAGAR (2,14.0,A,21.4957534922651,92.0776785856353,bridge
369,368,N1,364.184,Box Culvert,"ROSHIDNAGAR U,R CULVERT",14.1,A,21.4948695143646,92.0783346952486,bridge
370,369,N1,366.98,Box Culvert,JOARIANALA CULVERT,7.2,A,21.4782130684357,92.0947151779329,bridge
371,370,N1,367.362,Box Culvert,JOARIANALA,14.0,A,21.4755164496,92.0967866511999,bridge
372,371,N1,367.6,Box Culvert,JORIANALA,3.0,A,21.4738446327586,92.0980125862068,bridge
373,372,N1,368.129,PC Girder Bridge,Joarianala Bazar Bridge,57.65,A,21.470055530337,92.1006402232209,bridge
374,373,N1,368.703,Box Culvert,JOARIANALA CULVERT,14.0,B,21.4655415307901,92.1026566882833,bridge
375,374,N1,370.799,Box Culvert,MITA CHARI BOX CULVERT,9.2,A,21.4505569351351,92.0994681432432,bridge
376,375,N1,371.64,Box Culvert,RAMU HOSPITAL GATE,1.5,A,21.4433865625,92.1012678785714,bridge
377,376,N1,371.848,PC Girder Bridge,MITACMARI RAMU BRIDGE,58.6,B,21.4418389714285,92.1007083571428,bridge
378,377,N1,372.43,Box Culvert,MARULA (WEST,3.0,A,21.4372009552325,92.0983672723837,bridge
379,378,N1,372.782,Box Culvert,MARULA BOX CULVERT,2.5,A,21.4342084624161,92.0972607067114,bridge
380,379,N1,373.192,Box Culvert,RAMU BRAC OFFICE,7.2,A,21.4308087593886,92.0961182921397,bridge
381,380,N1,373.424,Box Culvert,RAMU BY PASS MORE,3.5,A,21.4288400316455,92.0953913860759,bridge
382,381,N1,373.598,Box Culvert,RAMU MOUR BOX CULVDERT,12.8,A,21.4283515971831,92.0940714267605,bridge
383,382,N1,374.081,Box Culvert,ROMA CALLAGE BOX CULVERT,18.8,A,21.427895984,92.089450816,bridge
384,383,N1,374.655,Box Culvert,ROMA TECHIPUL,8.2,A,21.4271063768115,92.0840258231884,bridge
385,384,N1,375.035,Box Culvert,SAMBAR PUL CULVERT,7.4,A,21.4267747132812,92.0804427367187,bridge
386,385,N1,375.416,Box Culvert,CHAKMARKOOL,12.4,A,21.4264716,92.0767771,bridge
387,386,N1,376.062,Box Culvert,CHAKMAR KOOL BOX CULVERT,9.4,A,21.4273654498084,92.0708934808429,bridge
388,387,N1,376.931,Box Culvert,KHURUTIA BOX CULVERT,2.0,A,21.4271759977099,92.0634431893129,bridge
389,388,N1,377.189,Box Culvert,KHURULIA CULVERT,6.8,A,21.4273089357414,92.0610656669201,bridge
390,389,N1,377.519,Box Culvert,KHURULIA SCHOOL BOX CULVERT,16.6,A,21.4278354522255,92.0579673860534,bridge
391,390,N1,377.753,Box Culvert,KHURULIA SCHOOL BOX CULVERT,18.6,A,21.4280296848739,92.0557570361344,bridge
392,391,N1,378.02,Box Culvert,KHURULIA CHAIRMAN PARA BOX CULVERT,7.2,A,21.4280584948275,92.0532281715517,bridge
393,392,N1,378.492,RCC Girder Bridge,Sarkarpara Bridge,13.0,A,21.4275245,92.0486482172786,bridge
394,393,N1,379.004,Box Culvert,WEST DOVGE BOX CULVERT,10.9,A,21.4294452102564,92.0443807192307,bridge
395,394,N1,379.504,Box Culvert,MUKTAR KUL,9.2,A,21.4297884,92.0395945696,bridge
396,395,N1,380.346,RCC Girder Bridge,Bakkhali Bridge,136.3,C,21.4294033629834,92.0318887491712,bridge
397,396,N1,380.615,Box Culvert,MOHURI RARA BOX,3.5,A,21.4303257834586,92.0296206984962,bridge
398,397,N1,380.759,Box Culvert,RABAR DAM BOX,10.3,A,21.4301539217391,92.0283434956521,bridge
399,398,N1,381.374,Box Culvert,LINK ROAD CULVERT,9.0,A,21.426498621044,92.0238834076672,bridge
400,399,N1,381.985,RCC Girder Bridge,BESIC AREA,4.5,C,21.423063061512,92.0267879589347,bridge
401,400,N1,382.055,Steel Beam & RCC Slab,BASIC ARIA (1,11.3,C,21.4226721680412,92.0272924520618,bridge
402,401,N1,382.649,Box Culvert,KAMBIR GONA,2.4,C,21.4194017834586,92.031682906015,bridge
403,402,N1,383.098,Box Culvert,HAMBIR GONA (1,7.2,B,21.4170232427616,92.0347260730512,bridge
404,403,N1,383.269,RCC Girder Bridge,HAMBIR GONA-(2,8.1,C,21.4161167631868,92.0359357093406,bridge
405,404,N1,383.632,Box Culvert,KANAR PARA,10.9,A,21.4142599314893,92.0386736859574,bridge
406,405,N1,384.001,Box Culvert,SHORAR COOL,8.3,A,21.4124968430517,92.0395268517711,bridge
407,406,N1,384.358,Steel Beam & RCC Slab,SOUTH MITTA CHORI,8.3,B,21.4110029325153,92.0443379558282,bridge
408,407,N1,384.788,Slab Culvert,SOUTH MITHACHARI,2.2,B,21.4102488567901,92.0480366814814,bridge
409,408,N1,384.978,Box Culvert,SOUTH MITHACHARI,8.2,A,21.4102981858461,92.0496622239999,bridge
410,409,N1,385.237,Slab Culvert,SOUTH MITTA CULVERT,1.9,A,21.4099236838827,92.0518884435897,bridge
411,410,N1,385.614,Slab Culvert,SOUTH MITHACHARI,3.0,A,21.4088399161904,92.0550238095238,bridge
412,411,N1,385.78,Slab Culvert,SOUTH MITHACHARI,2.8,A,21.4079574071005,92.0560124923076,bridge
413,412,N1,386.07,RCC Bridge,SHAMMOTI PARA,10.0,D,21.4063607143344,92.0580467784983,bridge
414,413,N1,386.494,Slab Culvert,CHALATOLI,1.6,A,21.4041499171641,92.0618387037313,bridge
415,414,N1,386.968,Box Culvert,CHALIYATOLI,3.6,A,21.402009374844,92.0647406251559,bridge
416,415,N1,387.23,Steel Beam & RCC Slab,RAKALAN PARA STEEL BEAM AND RCC SLAB,8.0,C,21.4001878992395,92.0660829174905,bridge
417,416,N1,387.398,Arch Masonry,CHALIYA TOLI -2 ARCH MASONRY,1.3,C,21.3987858977186,92.0665265524714,bridge
418,417,N1,387.843,Box Culvert,PANCHORI,8.3,A,21.3950144227586,92.0675884137931,bridge
419,418,N1,388.328,Steel Beam & RCC Slab,PANCHORA STEEL BEAM AND RCC SLAB,22.0,C,21.3908555107438,92.0684757008264,bridge
420,419,N1,388.565,Slab Culvert,PANAR CHORH -3 SLAB CULVERT,2.7,C,21.3888052,92.0689623,bridge
421,420,N1,388.733,Slab Culvert,PANCHARA SLAB CULVERT,2.7,B,21.3874538459459,92.0697162891891,bridge
422,421,N1,388.886,Slab Culvert,PANCHARA SLAB CULVERT,2.9,C,21.386218603409,92.0702884892045,bridge
423,422,N1,388.956,Slab Culvert,PANCHARA SLAB CULVERT,1.8,C,21.3856411333333,92.0704543196078,bridge
424,423,N1,389.101,Slab Culvert,PANAR CHORA SLAB CULVERT,2.8,B,21.3844064618421,92.0705223447368,bridge
425,424,N1,389.258,Slab Culvert,PANCHORI SLAB CULVERT,1.8,B,21.3831050828947,92.0708809157894,bridge
426,425,N1,389.282,Slab Culvert,PANCHARA SLAB CULVERT,1.7,A,21.3829076671052,92.0709510842105,bridge
427,426,N1,389.538,Slab Culvert,PANCHORI,0.8,A,21.3808422435754,92.0709982664804,bridge
428,427,N1,389.684,Slab Culvert,DALA -2 SLAB CULVERT,1.5,B,21.3796187798882,92.0706130385474,bridge
429,428,N1,389.724,Slab Culvert,DALA-2 SLAB CULVERT,1.5,A,21.3793128,92.0704913857142,bridge
430,429,N1,389.899,Slab Culvert,DALA-3 SLAB CULVERT,2.2,C,21.3778510915584,92.0703548240259,bridge
431,430,N1,390.047,Slab Culvert,DALA SLAB CULVERT,1.5,A,21.3768882285714,92.0711223285714,bridge
432,431,N1,390.142,Slab Culvert,DALA SLAB CULVERT,3.0,A,21.3762792890109,92.0717458313186,bridge
433,432,N1,390.356,Slab Culvert,DHALLA SLAB CULVERT,2.4,C,21.3750850565217,92.0730282999999,bridge
434,433,N1,390.506,Slab Culvert,PANAR CHORI SLAB CULVERT,1.3,A,21.3745372352601,92.0740615132948,bridge
435,434,N1,390.595,Slab Culvert,PANAR HORA SLAB CULVERT,1.3,A,21.3743800190751,92.0748617416184,bridge
436,435,N1,390.814,Slab Culvert,PANCR CHAR SLAB CULVERT,1.3,C,21.3737957588607,92.0766236613924,bridge
437,436,N1,391.031,Slab Culvert,TULA BAGAN SLAB CULVERT,1.3,C,21.3724168458515,92.0778930973799,bridge
438,437,N1,391.255,Box Culvert,TULA BAGAN BOX CULVERT,1.3,A,21.3706902708737,92.0790672786407,bridge
439,438,N1,391.373,Slab Culvert,TELA BAGAN SLAB CULVERT,1.3,A,21.3697436389312,92.0796434824427,bridge
440,439,N1,391.521,Slab Culvert,TULA BAGAN.,1.3,A,21.3686452190839,92.0800514992366,bridge
441,440,N1,391.664,Slab Culvert,PARARHORA CULVERT,1.3,B,21.367599241791,92.0804686731343,bridge
442,441,N1,391.997,RCC Girder Bridge,TULA BAGUN,7.1,C,21.3649267960264,92.0813617278145,bridge
443,442,N1,392.093,Slab Culvert,TULA BAGAN,1.3,B,21.3641002252199,92.0813316052785,bridge
444,443,N1,392.422,Slab Culvert,TOLA BAGAN,1.6,B,21.3613004264018,92.0805440936915,bridge
445,444,N1,392.526,Box Culvert,TULA BAGAN,2.5,A,21.3604702002336,92.0801526114486,bridge
446,445,N1,392.619,Slab Culvert,NORTH-CONIAPARA,1.3,A,21.3597277864485,92.0798025359813,bridge
447,446,N1,392.742,Slab Culvert,NORTH CONIAPARA,2.2,C,21.3587458843457,92.0793395329439,bridge
448,447,N1,393.038,Box Culvert,NORTH CONIA PARA BOX CULVERT,4.0,A,21.3562553024,92.0790827,bridge
449,448,N1,393.764,PC Girder Bridge,Modomconiara,21.5,C,21.3500251952038,92.0784342935251,bridge
450,449,N1,394.307,Steel Beam & RCC Slab,CONIA PARA,11.3,C,21.3453322117757,92.0789703396261,bridge
451,450,N1,394.681,Box Culvert,KHONIA POLONG,14.1,A,21.3420893171962,92.0788538753271,bridge
452,451,N1,395.328,Slab Culvert,KHONIA POLONG.,2.3,B,21.3365566114155,92.0789637010654,bridge
453,452,N1,395.64,Steel Beam & RCC Slab,DOA PATONG,24.1,C,21.3338390771689,92.0790428645357,bridge
454,453,N1,396.596,Steel Beam & RCC Slab,JASOYA PALONG,45.6,C,21.3269177037394,92.0819708735826,bridge
455,454,N1,397.144,RCC Girder Bridge,JASOYA PALONG RCC GIDER BRIDGE,5.0,C,21.3237869258823,92.0857429782352,bridge
456,455,N1,397.591,Steel Beam & RCC Slab,MORICHIA,11.2,D,21.3211087823529,92.0888836352941,bridge
457,456,N1,397.679,Arch Masonry,Jasoya check post.,1.3,B,21.3205831278931,92.0894967632047,bridge
458,457,N1,398.406,Steel Beam & RCC Slab,MARIECHA BAZAR,49.3,C,21.3162096661991,92.0939592732117,bridge
459,458,N1,399.452,Box Culvert,MORICHIA PALONG,2.4,B,21.308226843421,92.0972648315789,bridge
460,459,N1,400.027,Slab Culvert,MORICHIA PALONG,2.3,C,21.3035165189189,92.0968487459459,bridge
461,460,N1,400.46,Steel Beam & RCC Slab,SHAPUR STEEL BEAM AND RCC SLAB,61.3,D,21.2997453619819,92.0974772590991,bridge
462,461,N1,401.752,Box Culvert,SHAPUR,14.1,A,21.2887748,92.0999549688796,bridge
463,462,N1,401.89,Steel Beam & RCC Slab,COTBAZR MUSLIM HOS,11.0,B,21.28755005,92.1000623912863,bridge
464,463,N1,402.323,Box Culvert,COURT BAZAR,10.3,A,21.2837382315436,92.1005546348993,bridge
465,464,N1,403.495,Box Culvert,RATNAPALANG,14.0,A,21.2740057908634,92.1044223449799,bridge
466,465,N1,403.509,Steel Beam & RCC Slab,CHADIRIKHANA,23.5,A,21.2738921701807,92.1044785698795,bridge
467,466,N1,403.79,Steel Beam & RCC Slab,CHADIRIKHANA,23.5,A,21.271611640763,92.1056070839357,bridge
468,467,N1,404.393,Steel Beam & RCC Slab,EJILA,11.1,C,21.2676412724612,92.1091529913941,bridge
469,468,N1,404.487,Steel Beam & RCC Slab,HIZOLIA BRIDGE,50.6,C,21.2671335430292,92.1098720509466,bridge
470,469,N1,404.774,Steel Beam & RCC Slab,MODDO RAJAPALONG,11.5,C,21.2655833478485,92.1120674774526,bridge
471,470,N1,405.728,Steel Beam & RCC Slab,JADIMURA BRIDGE,6.6,C,21.2600473697902,92.1189860875524,bridge
472,471,N1,405.969,Slab Culvert,JADI MORA (2 CULVERT,2.4,A,21.2586242226573,92.1207179843356,bridge
473,472,N1,406.218,Arch Masonry,JADIMORA (3,17.0,A,21.2570550964285,92.1224165035714,bridge
474,473,N1,406.517,Slab Culvert,JADIMORA (1,2.4,A,21.2552064351464,92.1243872108786,bridge
475,474,N1,406.791,Steel Beam & RCC Slab,WEST OGALA,11.1,C,21.2538028,92.12659709,bridge
476,475,N1,407.239,Steel Beam & RCC Slab,OKYIA STATION,8.5,C,21.2504537,92.1307493,bridge
477,476,N1,407.785,Slab Culvert,UKLIA-SHAHABMARKAT,2.4,C,21.2489644871959,92.1328410912932,bridge
478,477,N1,408.235,Steel Beam & RCC Slab,UKHIYA BAZAR,20.7,B,21.2457262593333,92.1373042073333,bridge
479,478,N1,411.81,Slab Culvert,P. F PARA SLAB,2.0,A,21.2308784786138,92.1607571460396,bridge
480,479,N1,412.008,Steel Beam & RCC Slab,KUTUB PALONG,11.3,C,21.2293155332673,92.1613561450495,bridge
481,480,N1,412.931,Slab Culvert,KUTU - PALONG MOSZID SLAB,2.2,B,21.2215199757575,92.1617032590909,bridge
482,481,N1,413.235,Steel Beam & RCC Slab,KOSHO - BINNA - BRIDGE,10.9,C,21.218960082,92.162077758,bridge
483,482,N1,413.43,Slab Culvert,KASHO - BINNAI SLAB,2.1,C,21.21737604825,92.16248399175,bridge
484,483,N1,413.66,Slab Culvert,KATU PALLANG SLAB,2.0,A,21.2160115861386,92.1636641564356,bridge
485,484,N1,413.901,Slab Culvert,KUTUNG PALANG SLAB,1.8,A,21.2149359632653,92.1655512030612,bridge
486,485,N1,414.0,Slab Culvert,KOSUKONA,2.2,A,21.2144308612244,92.1664067448979,bridge
487,486,N1,415.056,Box Culvert,BALAKHALI TV CENTER,6.4,A,21.2063047283582,92.1700180179104,bridge
488,487,N1,415.296,Slab Culvert,BALUKHALI-2 SLAB,2.2,A,21.2043409872865,92.1703567258064,bridge
489,488,N1,415.574,Box Culvert,BALUKHALI KASTOM,3.1,A,21.2019671732447,92.1704006677419,bridge
490,489,N1,416.057,RCC Girder Bridge,Balukali Old bus Stand Bridge,38.7,C,21.197632418584,92.1705772646017,bridge
491,490,N1,416.354,Box Culvert,BAKUHHALI KASHAMIA,3.0,A,21.1953155305785,92.1705074661157,bridge
492,491,N1,416.966,RCC Girder Bridge,BALUKHALI,9.4,B,21.1907730988505,92.1680703199233,bridge
493,492,N1,417.29,RCC Girder Bridge,Balukhali Boro Bridge,15.4,D,21.1888919350109,92.1658773557987,bridge
494,493,N1,418.231,Box Culvert,GOGU GONA,1.2,A,21.1839744314735,92.1593026449213,bridge
495,494,N1,418.76,Box Culvert,THANGKHALI BOX CULVERT,3.1,C,21.1797067107296,92.1578310562231,bridge
496,495,N1,419.036,Box Culvert,THANG KHALI BOX CULVERT,3.1,B,21.177417156701,92.1570372113402,bridge
497,496,N1,419.278,RCC Girder Bridge,Thang Khali Bridge,48.2,D,21.1754208098765,92.1562526135802,bridge
498,497,N1,419.63,RCC Girder Bridge,CHANG KHALI BRIDGE,9.4,C,21.1724828063829,92.1552940329787,bridge
499,498,N1,419.88,RCC Girder Bridge,CHANG KHALI BRIDGE,31.1,B,21.1703723502057,92.1547387765432,bridge
500,499,N1,420.093,RCC Girder Bridge,Jam Toli Bridge,9.4,C,21.1688213638709,92.153662396129,bridge
501,500,N1,420.18,Box Culvert,JAM TOLI BOX CULVERT,3.0,A,21.168232930909,92.1531459818181,bridge
502,501,N1,420.406,RCC Girder Bridge,DAIM PARA BRIDGE,9.3,B,21.1666653482213,92.1523376486166,bridge
503,502,N1,420.537,Box Culvert,DAIM PARA CULVERT,3.0,C,21.1655725596837,92.1522082019762,bridge
504,503,N1,420.606,Box Culvert,DAIM PARA CULVERT,4.6,A,21.16498780625,92.152190071875,bridge
505,504,N1,420.952,Box Culvert,DAIM PARA CULVERT,1.25,C,21.1619757444915,92.1523314669491,bridge
506,505,N1,421.156,Box Culvert,DAIM PARA CULVERT,3.0,A,21.1602045009259,92.1525257175926,bridge
507,506,N1,421.358,Box Culvert,PALONG KHALI CULVERT,3.0,C,21.1584534746478,92.1525195633802,bridge
508,507,N1,422.081,RCC Girder Bridge,PALONG KHALI BAZAR (1,9.4,C,21.1524632792452,92.1534145867924,bridge
509,508,N1,422.447,RCC Bridge,PALONG KHALI BAZAR BRIDGE,15.2,C,21.1498906490706,92.1552156215613,bridge
510,509,N1,422.784,RCC Girder Bridge,PALONG KHALI RCC GIDER BRIDGE,58.0,C,21.1477676743494,92.1570426250929,bridge
511,510,N1,423.442,RCC Girder Bridge,KARUN TOLI RCC GIDER BRIDGE,3.3,B,21.1425462548387,92.159429216129,bridge
512,511,N1,423.67,RCC Girder Bridge,Karontoli Bridge,15.4,C,21.1408647661691,92.1605222283582,bridge
513,512,N1,423.804,RCC Girder Bridge,GIVATOLI RCC GIDER BRIDGE,3.3,A,21.140210455058,92.1615530950248,bridge
514,513,N1,424.075,RCC Girder Bridge,GIVA TOLI RCC GIDER BRIDGE,3.3,A,21.1388871840796,92.1636379074626,bridge
515,514,N1,424.271,Box Culvert,GIVA TOLI BOX CULVERT,1.2,A,21.1380664956896,92.1651978,bridge
516,515,N1,424.395,RCC Girder Bridge,GIVATOLI RCC GIDER BRIDGE,32.0,C,21.1379210829268,92.1663534195121,bridge
517,516,N1,424.577,RCC Girder Bridge,Kata Khali Bridge,12.3,D,21.1376124564885,92.1680587053435,bridge
518,517,N1,424.783,Box Culvert,ULI BANIA BOX CULVERT,1.2,C,21.1373350498154,92.1700112125461,bridge
519,518,N1,425.267,RCC Girder Bridge,Porbo Kata Khali Bridge,15.2,C,21.1366125359375,92.1745027796875,bridge
520,519,N1,425.455,RCC Girder Bridge,ULUBANIA RCC GIDER BRIDGE,4.8,A,21.1360412976525,92.1760569938967,bridge
521,520,N1,425.715,Box Culvert,ULIBANIA BOX CULVERT,1.3,C,21.1349149157894,92.1779379605263,bridge
522,521,N1,425.882,RCC Girder Bridge,DMONIR GONA RCC GIDER BRIDGE,3.3,A,21.1342388024291,92.179158717004,bridge
523,522,N1,426.555,RCC Girder Bridge,BALUR KHALI -(1 RCC GIDER BRIDGE,4.7,B,21.1318968873563,92.1846917362069,bridge
524,523,N1,426.881,Box Culvert,BALU KHALI -2 BOX CULVERT,1.2,C,21.1299737216216,92.1868158522522,bridge
525,524,N1,426.915,RCC Girder Bridge,Balu Khali Bridge,7.9,D,21.1297680981982,92.1870470012012,bridge
526,525,N1,427.041,Box Culvert,W HIME KANG BOX CULVERT,1.2,A,21.1290060819819,92.187903612012,bridge
527,526,N1,427.154,Box Culvert,WHIKE KANG BOX CULVERT,1.2,A,21.1283226864864,92.1886718423423,bridge
528,527,N1,427.231,Box Culvert,WHIKE KANG BOX CULVERT,1.2,B,21.1278570099099,92.1891953267267,bridge
529,528,N1,427.622,RCC Girder Bridge,Wheke Kang Bridge,6.4,D,21.125103688724,92.1913674700296,bridge
530,529,N1,427.804,RCC Girder Bridge,WHIKE KANG BRIDGE,3.35,A,21.1237604940298,92.1921588880597,bridge
531,530,N1,427.918,RCC Girder Bridge,Moa Ex Kang Bridge,13.0,C,21.1229108079646,92.1927223495575,bridge
532,531,N1,427.969,RCC Girder Bridge,HOA EX KANG BAZAE,3.2,A,21.1225347168141,92.1929605601769,bridge
533,532,N1,428.095,RCC Girder Bridge,Hoacx Kang Barbar Bridge,72.6,B,21.1215698917647,92.1935169658823,bridge
534,533,N1,428.578,Box Culvert,AMTULI BOX CULVERT,3.4,A,21.1184609383419,92.1962922290155,bridge
535,534,N1,428.89,Slab Culvert,TASSI-PARA BAR,2.8,A,21.1159743461538,92.1970744923076,bridge
536,535,N1,429.081,RCC Girder Bridge,Tasse Bridge,12.8,D,21.1145580496021,92.1980208315649,bridge
537,536,N1,429.491,Box Culvert,LAMBA-BIL PORA,1.2,A,21.1118930148936,92.2005928021276,bridge
538,537,N1,429.615,Box Culvert,LAMBABIL MIDDLE PARA,1.2,A,21.1108101507936,92.2020956942857,bridge
539,538,N1,429.719,Box Culvert,LAMBABIL MIDDLE,1.2,A,21.1098838904761,92.2033796485714,bridge
540,539,N1,429.912,Box Culvert,LAMBA - BIL - (1 BOX CULVERT,2.8,A,21.108771344186,92.2048378697674,bridge
541,540,N1,430.072,Slab Culvert,LAM BA BIL (2 BOX CULVERT,2.8,A,21.1083165348837,92.2053339813953,bridge
542,541,N1,430.287,Box Culvert,LAMBA BIL (3 BOX CULVERT,1.2,A,21.1078333,92.2061073045454,bridge
543,542,N1,430.582,Box Culvert,LAMBA BIL BOX,1.2,C,21.1052944333333,92.20739816,bridge
544,543,N1,430.978,RCC Girder Bridge,Unchi-Prong Bridge,34.2,C,21.1020295703488,92.2079394552325,bridge
545,544,N1,431.167,Box Culvert,ON SIFAPAING BOX CULVERT,3.0,A,21.1005774145454,92.208578050909,bridge
546,545,N1,431.398,Box Culvert,UNCHING OPLONG CULVERT (1,1.2,A,21.0988710315789,92.2096579157894,bridge
547,546,N1,431.877,Box Culvert,KUTUB DIA PARA (1 CULVERT,2.7,A,21.0950312659147,92.2114600974937,bridge
548,547,N1,431.946,Box Culvert,KUTUB DIA PARA CULVERT,2.7,A,21.0944452155388,92.2116762629072,bridge
549,548,N1,432.19,Slab Culvert,KUTUB - DIA PARA (3,4.2,A,21.0923827310126,92.2123111474683,bridge
550,549,N1,432.411,Slab Culvert,KANGOR PARA,2.7,A,21.0905260238297,92.2128845902127,bridge
551,550,N1,432.62,Box Culvert,KANGOR PARA MOZGID,1.2,A,21.088867034104,92.213695567052,bridge
552,551,N1,432.865,Slab Culvert,KHAN GIOR PARA (1,2.8,A,21.0869591497109,92.2148363748555,bridge
553,552,N1,432.924,Box Culvert,KHANGOR PRAMARY (2,1.2,A,21.0864997,92.2151111,bridge
554,553,N1,433.178,RCC Girder Bridge,KHAN GOR PARA BRIDGE,14.0,B,21.0844125039525,92.2159198454545,bridge
555,554,N1,433.441,Box Culvert,RHANCHOR PARA BOX CULVERT,1.2,A,21.0822419459459,92.2166012177177,bridge
556,555,N1,433.665,Box Culvert,KHANCHOR PARA (2,1.0,A,21.0804429857142,92.2174040714285,bridge
557,556,N1,433.826,Box Culvert,KHANCHOR PARA- BOX CULVERT,1.0,A,21.079224345977,92.2181232950191,bridge
558,557,N1,434.124,Slab Culvert,NOYA PARA (1 BOX CULVERT,3.0,A,21.077282565,92.2199300692307,bridge
559,558,N1,434.37,RCC Girder Bridge,NOYA PARA (1 BRIDGE,6.1,C,21.0757171602316,92.2214353972973,bridge
560,559,N1,434.573,RCC Girder Bridge,NAYAPARA,5.8,A,21.0741777849315,92.2222489445205,bridge
561,560,N1,434.831,Box Culvert,NOYA PARA,1.3,A,21.0724929467032,92.2235128087912,bridge
562,561,N1,435.013,RCC Girder Bridge,GIMON KHALI BRIDGE,5.8,B,21.071231875641,92.2242923685897,bridge
563,562,N1,435.22,RCC Girder Bridge,Gim-mogari Bridge,7.5,C,21.0695363333333,92.2245687666666,bridge
564,563,N1,435.748,Box Culvert,NINA BAZAR BOX CULVERT,1.2,A,21.0650398482758,92.2245345498084,bridge
565,564,N1,436.388,RCC Girder Bridge,Noya Bazar(1 Bridge,30.9,C,21.0598736617647,92.2263822093137,bridge
566,565,N1,436.6,Box Culvert,NOYA BAZAR CULVERT,1.2,C,21.0579897631578,92.226509045614,bridge
567,566,N1,436.789,RCC Girder Bridge,Naya Bazar(2 Bridge,9.4,D,21.0562943527173,92.2266452831521,bridge
568,567,N1,437.063,RCC Girder Bridge,Naya Bazar(3 Bridge,11.8,C,21.0542867597222,92.2274586981481,bridge
569,568,N1,437.484,Box Culvert,KHARANG KHALI - BOX CUVERT (1,2.8,C,21.0519406592592,92.2296964950617,bridge
570,569,N1,437.961,Box Culvert,KHARANG KHAIL,1.2,C,21.0508486063492,92.233513137037,bridge
571,570,N1,438.506,RCC Girder Bridge,MOULIVI BAZAR FISHARI BRIDGE,31.7,C,21.0464598480314,92.23512063937,bridge
572,571,N1,439.007,Box Culvert,MOULOVI BAZAR BOX CULVERT (1,1.2,C,21.0422652012594,92.2367552062972,bridge
573,572,N1,439.235,Box Culvert,MOULOVI BAZAR BOX CULVERT,1.2,C,21.0404408514814,92.2376541207407,bridge
574,573,N1,439.579,Box Culvert,ALI AXBAR PARA BOX CULVERT,6.2,A,21.0376449596296,92.2390520348148,bridge
575,574,N1,440.028,RCC Girder Bridge,Nila-Hoab Rabg Bridge,32.1,C,21.0340308457564,92.2407063719557,bridge
576,575,N1,440.724,Slab Culvert,NILLA BOX CULVERT (1,4.4,A,21.0279544680791,92.2415858245762,bridge
577,576,N1,440.977,Slab Culvert,NILA. BARAR BOX CULVERT,2.9,A,21.0256598717703,92.2418041698564,bridge
578,577,N1,441.666,Slab Culvert,NILA - DORGA- PARA-(1 BOX,2.8,A,21.0198087471074,92.2428140276859,bridge
579,578,N1,441.974,Slab Culvert,NILA DOGA PARA BOX CULVERT,2.8,A,21.0173417560386,92.2438384763284,bridge
580,579,N1,442.161,Slab Culvert,NAT MURA PARA BOX CULVERT,1.9,A,21.015929034375,92.2447567,bridge
581,580,N1,443.024,RCC Girder Bridge,Chowdhory Para Bridge,45.6,C,21.0097686468354,92.2495377240506,bridge
582,581,N1,443.564,Slab Culvert,RONGI HALI BOX CULVERT,2.8,B,21.0058252962264,92.252279838915,bridge
583,582,N1,444.315,RCC Girder Bridge,Rongi-Khali Bridge,12.5,C,20.9994058966292,92.2537214265168,bridge
584,583,N1,445.478,RCC Girder Bridge,ALA KHALI KUNA PARA,29.9,C,20.9893582625336,92.2545712327493,bridge
585,584,N1,446.435,Box Culvert,LADA BAZAR BOX CULVERT,1.2,C,20.9813317189461,92.2521134830717,bridge
586,585,N1,446.71,RCC Girder Bridge,LADAPARA RCC GIDER BRIDGE,36.6,C,20.9790279773542,92.2512228468609,bridge
587,586,N1,447.084,Slab Culvert,NAYAPARA BOX CULVERT,2.8,A,20.9759372216027,92.2499898655052,bridge
588,587,N1,447.401,RCC Girder Bridge,Noya Para Bridge,30.4,C,20.9732781770034,92.2493761152148,bridge
589,588,N1,447.893,Box Culvert,NAYA PARA BOX CULVERT,1.2,A,20.9691570827586,92.2486529011494,bridge
590,589,N1,448.054,RCC Girder Bridge,Mosinni Mor Bridge,8.8,B,20.967853415126,92.2489720949579,bridge
591,590,N1,448.391,Box Culvert,NOYA PARA CULVERT,1.2,A,20.9655685949554,92.2508723928783,bridge
592,591,N1,448.481,Box Culvert,NOYA PARA CULVERT,1.2,A,20.9649678916913,92.2514288706231,bridge
593,592,N1,448.581,Box Culvert,NOYA PARA (MUSJID BOX CULVERT(L,1.2,A,20.9641892820433,92.2518817702786,bridge
594,593,N1,448.581,Box Culvert,NOYA PARA BOX CULVERT(R,1.2,A,20.9641892820433,92.2518817702786,bridge
595,594,N1,448.926,RCC Girder Bridge,Noya Para Bridge,9.2,A,20.9614231446428,92.2532539928571,bridge
596,595,N1,449.101,RCC Girder Bridge,Jadirghat Bridge,41.75,C,20.9599449953642,92.2537187390728,bridge
597,596,N1,449.439,Box Culvert,JADIMORH BOX CULVERT,1.2,A,20.9571000129411,92.2546526588235,bridge
598,597,N1,449.7,RCC Girder Bridge,Jadimura bridge,7.5,A,20.9549388422619,92.2555312529762,bridge
599,598,N1,450.446,RCC Girder Bridge,DOMDO MIA BRIDGE,37.2,C,20.9491451322709,92.2584208880478,bridge
600,599,N1,450.599,Box Culvert,DONDO MIA BOX CULVERT,1.5,A,20.9481536869565,92.2592633282608,bridge
601,600,N1,450.759,Slab Culvert,DONDO MIA BOX CULVERT,2.7,A,20.9470947924242,92.2597883075757,bridge
602,601,N1,450.943,Box Culvert,DOMMO MIA BOX CULVERT,1.2,A,20.9458507925133,92.2603333,bridge
603,602,N1,451.328,RCC Girder Bridge,Dhando Mia Bridge,38.0,C,20.9427885228723,92.260596812234,bridge
604,603,N1,451.984,RCC Girder Bridge,DONDO MIA CHAK POST BRIDGE,51.0,B,20.93730526,92.26237497,bridge
605,604,N1,452.561,RCC Girder Bridge,DOMDO MIA BRIDGE,13.5,B,20.9324260319587,92.2636134,bridge
606,605,N1,452.624,RCC Girder Bridge,DOMDO MIA,13.5,B,20.9318757724226,92.263712625,bridge
607,606,N1,452.793,Slab Culvert,DONDOMIA,2.7,A,20.9303996793814,92.2639787999999,bridge
608,607,N1,453.05,RCC Girder Bridge,DONOMIA,34.8,C,20.9281373875,92.264301196875,bridge
609,608,N1,453.372,Slab Culvert,DONMIA,2.7,D,20.9253890280839,92.2649451585301,bridge
610,609,N1,453.95,RCC Girder Bridge,Karumtoli Bridge,37.6,C,20.9209276456603,92.2674528079245,bridge
611,610,N1,454.219,Box Culvert,KARUNTON BOX CULVERT,1.2,A,20.9188881999999,92.26870765,bridge
612,611,N1,454.33,RCC Girder Bridge,KARUM TOLI SHOTHA (1,6.0,A,20.91799614,92.2691008942857,bridge
613,612,N1,454.498,RCC Girder Bridge,Sholo Bandar Teknaf Bridge,6.0,C,20.9167064980392,92.2698571431372,bridge
614,613,N1,454.673,Box Culvert,KAKUM TOLI CHACK BOX CULVERT,1.2,B,20.9153707224137,92.2707239706896,bridge
615,614,N1,454.769,Slab Culvert,KARUMTOLI (3BOX CULVERT,2.8,A,20.9146350810344,92.2712067017241,bridge
616,615,N1,455.062,RCC Girder Bridge,KARUMTOLI,34.3,B,20.9126751559322,92.2727211220339,bridge
617,616,N1,455.206,Slab Culvert,KARUM TOLI BOX CULVERT,1.3,A,20.9116242986547,92.2733424008968,bridge
618,617,N1,455.366,RCC Girder Bridge,KARUMTOLI BRIDGE,23.7,C,20.9104284959641,92.2741396026905,bridge
619,618,N1,455.447,RCC Girder Bridge,KARUM TOLI RCC GIDER BRIDGE,10.6,A,20.909823120852,92.2745431860986,bridge
620,619,N1,455.496,RCC Girder Bridge,Polashir Bridge,10.6,A,20.909456906278,92.2747873291479,bridge
621,620,N1,455.688,RCC Girder Bridge,Baroy toli (1 Bridge,29.3,C,20.908032127731,92.2756905852941,bridge
622,621,N1,455.765,Slab Culvert,BORY TOLI SLAB CULVERT,2.8,A,20.9074479630252,92.2760590529411,bridge
623,622,N1,455.975,Slab Culvert,BORYTOLI SLAB CULVERT,2.8,A,20.9059771479674,92.2770855585365,bridge
624,623,N1,456.064,Slab Culvert,BARITOLI BOX CULVERT,2.8,A,20.9053051369863,92.2775738958904,bridge
625,624,N1,456.164,RCC Girder Bridge,BAROY TOLI RCC GIDER BRIDGE,17.5,C,20.9045718551546,92.2780768381443,bridge
626,625,N1,456.287,RCC Girder Bridge,BAROY TOLI RCC GIDER BRIDGE,8.3,C,20.9036912639175,92.2786932329896,bridge
627,626,N1,456.359,RCC Girder Bridge,BARIY TOLI RCC GIDER BRIDGE,6.1,B,20.9032027737864,92.2790446582524,bridge
628,627,N1,456.549,RCC Girder Bridge,NAITAN PARA RCC GIDER BRIDGE,23.0,B,20.9018849327974,92.2798735897106,bridge
629,628,N1,457.365,RCC Girder Bridge,NAITOM PARA RCC GIDER BRIDGE,15.1,B,20.8970988542857,92.2850607666666,bridge
630,629,N1,457.751,RCC Girder Bridge,NAITANG PARA RCC GIDER BRIDGE,9.0,A,20.8950896142857,92.2879523785714,bridge
631,630,N1,458.213,RCC Girder Bridge,NAITOM PARA RCC GIDER BRIDGE,9.0,B,20.892271114035,92.2909840333333,bridge
632,631,N1,458.799,RCC Girder Bridge,Eskahal Bridge,37.3,C,20.8901584525606,92.2957180800539,bridge
633,632,N1,459.681,Box Culvert,BUS STAND TEKNAF BOX CULVERT,1.5,A,20.8845667240506,92.2987158890295,bridge
634,633,N1,459.866,Box Culvert,BUS STAND TEKNAF BOX CULVERT,1.5,C,20.8830704487341,92.2981629575949,bridge
635,634,N1,460.113,RCC Girder Bridge,YAKNAT BRIDGE,35.9,C,20.8809852229698,92.2977774,bridge
636,1338,N1,462.254,sourcesink,sourcesink,0.0,,20.8629167,92.298083,sourcesink
637,1,N101,0.0,sourcesink,sourcesink,0.0,,23.4541389,91.2128611,sourcesink
638,1355,N101,6.021,sourcesink,sourcesink,0.0,,23.4593056,91.2533889,sourcesink
639,2,N102,0.0,sourcesink,sourcesink,0.0,,23.4789716,91.1181938,sourcesink
640,635,N102,0.984,Box Culvert,PORISPUR BOX CULVERT,3.0,A,23.4865823366366,91.1134175204204,bridge
641,636,N102,2.059,Box Culvert,Brorechon,1.5,A,23.49375786875,91.1065069265625,bridge
642,637,N102,2.363,Box Culvert,SHABAR BAZAR,1.6,A,23.4963160192691,91.1059203910299,bridge
643,638,N102,2.511,Box Culvert,ZUMUR BOX CULVERT,1.4,A,23.4976150683871,91.1056026587096,bridge
644,639,N102,4.249,Slab Culvert,DEAB POR SLAB CULVERT,2.5,B,23.5111353540229,91.0981810436781,bridge
645,640,N102,7.036,Box Culvert,RAMPUR,3.75,C,23.532123766,91.08357801,bridge
646,641,N102,8.475,RCC Girder Bridge,BARUARA BRIDGE.,17.8,A,23.5421601087719,91.0746609745614,bridge
647,642,N102,9.685,Box Culvert,KONSENOGOR BOX CUL,3.0,A,23.5498664037147,91.0663913769688,bridge
648,643,N102,10.53,Slab Culvert,CONSUNAGAR SLAB,0.9,A,23.5555824089887,91.0615780033707,bridge
649,644,N102,11.876,Box Culvert,HATAMARA BOX CULVERT.,3.2,A,23.5604191136,91.055518708,bridge
650,645,N102,11.966,Slab Culvert,HATIMARA (2SLAB CULVERT,3.0,C,23.5559566709677,91.0551586172043,bridge
651,646,N102,12.96,Box Culvert,KAKORTOLA CULVERT,6.0,B,23.5739730932019,91.0589041898522,bridge
652,647,N102,15.109,Box Culvert,BUGRABUS BOX CULVERT,5.7,A,23.582051760625,91.035477270625,bridge
653,648,N102,17.318,Box Culvert,BHIRALLA BOX CULVERT,3.0,A,23.587878085672,91.0165517525849,bridge
654,649,N102,18.211,Box Culvert,BARRA BOX CULVERT,6.2,C,23.5909394457831,91.0082061759036,bridge
655,650,N102,19.122,Box Culvert,BARRA (3BOX CULVERT,6.0,A,23.594105237569,91.0002488353591,bridge
656,651,N102,19.479,Box Culvert,BARRA 2 BOX CUL,2.5,A,23.5961376844011,90.9976162052924,bridge
657,652,N102,21.137,Box Culvert,BARHA BOX CULVERT,4.6,B,23.6074609183908,90.9886068132183,bridge
658,653,N102,21.478,Arch Masonry,Boro Alompur Arch Masonary,1.3,A,23.6096045263427,90.9862390168798,bridge
659,654,N102,21.519,Box Culvert,DABIDDAR CULVERT,2.8,A,23.6098404598465,90.9859215237851,bridge
660,655,N102,22.669,Box Culvert,SAIRCHOR BOX CULVERT,9.6,A,23.615993353138,90.9775472001394,bridge
661,656,N102,23.564,RCC Girder Bridge,Bingla Bari Bridge,33.4,A,23.6228564975767,90.9732165132471,bridge
662,657,N102,24.808,RCC Girder Bridge,Companigong RCC Girder Bridge,113.8,A,23.6334519936602,90.9707964104067,bridge
663,658,N102,25.791,Box Culvert,Nagorpar Box Culvert,9.4,A,23.6421389039215,90.9710499655228,bridge
664,659,N102,26.614,Box Culvert,KATAKHALI BOX CULVERT,9.3,A,23.64944876793,90.9712944618075,bridge
665,660,N102,27.867,Box Culvert,BAKON NAGAR BOX CULVERT,6.1,B,23.657110863914,90.9792871683257,bridge
666,661,N102,28.106,RCC Girder Bridge,GAFUR NAGOR RCC GIDER BRIDGE,51.2,C,23.6582625911764,90.98123461,bridge
667,662,N102,28.594,Box Culvert,DHARIA BOX CULVERT,12.3,A,23.6606364852349,90.9852248134228,bridge
668,663,N102,29.3,Box Culvert,BAHARNAGOR BOX CULVERT,6.0,A,23.6641292255813,90.9909234372093,bridge
669,664,N102,29.509,RCC Girder Bridge,MANJUR BRIDGE,52.0,C,23.6651021529148,90.9924928071748,bridge
670,665,N102,29.841,Box Culvert,C. M. B BAZAR BOX CUVERT,12.6,A,23.6667115322033,90.9949959288135,bridge
671,666,N102,30.562,RCC Girder Bridge,Yousufpur Bridge.,24.5,C,23.6706588358851,91.001111684689,bridge
672,667,N102,31.082,Box Culvert,YOUSUFPUR (2 BOX CULVERT,4.5,B,23.6732779054794,91.0052758616438,bridge
673,668,N102,31.27,Box Culvert,USUP POR-2 BOX CULVERT,6.0,B,23.674231551282,91.0067770538461,bridge
674,669,N102,31.894,Box Culvert,USUP - PUR BOX CULVERT,12.6,C,23.67742905968,91.01174384112,bridge
675,670,N102,32.655,Box Culvert,SAMOLSHAL CHOR BOX CULVERT,9.5,C,23.6814348885558,91.0178126856948,bridge
676,671,N102,33.038,Box Culvert,NAYAPARA BOX CULVERT,9.2,C,23.6835366416666,91.02088825,bridge
677,672,N102,33.647,Box Culvert,SHALGANG BOX CULVERT,9.4,A,23.6845080677796,91.0256800398998,bridge
678,673,N102,33.965,Box Culvert,BORAIPARA BOX CULVERT,3.0,C,23.6884738712903,91.0280666458064,bridge
679,674,N102,34.515,Box Culvert,BROSALGAR CULVERT,9.5,A,23.6915390710431,91.0322015766187,bridge
680,675,N102,35.141,RCC Girder Bridge,SONG CHAIL RCC GIDER BRIDGE,35.5,C,23.6950746873563,91.0372988528735,bridge
681,676,N102,35.941,Box Culvert,SHANKAIL BOX CULVERT,9.3,B,23.6990813911894,91.042925047577,bridge
682,677,N102,36.207,Box Culvert,HAJIBARI BOX CULVERT,6.5,A,23.7008901830508,91.0453691457627,bridge
683,678,N102,36.703,Box Culvert,MOULSBI BARI CULVERT,12.2,A,23.7036148380368,91.0491655730061,bridge
684,679,N102,36.877,Box Culvert,BRAMMON PARA BOX CULVERT,12.2,A,23.7046022718562,91.050450066467,bridge
685,680,N102,37.398,Box Culvert,MUDUPPUR BOX CULVERT,12.6,C,23.7077014655581,91.0544804755344,bridge
686,681,N102,37.737,Slab Culvert,MUDOBPUR CULVERT,4.8,A,23.7097447107142,91.0569570697368,bridge
687,682,N102,37.955,Box Culvert,MIRPUR CULVERT,4.65,A,23.7111220035714,91.058573425,bridge
688,683,N102,38.49,Box Culvert,MURPUR BOX,12.5,A,23.7144097669724,91.0626727449541,bridge
689,684,N102,38.952,Box Culvert,TALIPARA BOX CULVERT,6.2,A,23.7170942278131,91.0659238080679,bridge
690,685,N102,39.689,RCC Girder Bridge,MOKIMPUR RCC GRIDER BRIDGE,17.2,B,23.7214400894736,91.0713290078947,bridge
691,686,N102,40.291,RCC Girder Bridge,KALAMONLA BRIDGE,52.4,B,23.724717610204,91.0759599153061,bridge
692,687,N102,41.26,Box Culvert,KALAMURIA BOX CULVERT,12.3,B,23.7319009767801,91.0806945739938,bridge
693,688,N102,43.708,Box Culvert,CHOW MONI BOX CULVERT,12.2,A,23.7506772992987,91.0927929893408,bridge
694,689,N102,44.355,RCC Girder Bridge,Kuchi chuani er Bridge,37.0,A,23.7546766537313,91.0972766597014,bridge
695,690,N102,44.664,Box Culvert,MIRPUKUR CULVERT,18.6,B,23.7564383509433,91.0993658110062,bridge
696,691,N102,45.274,Box Culvert,GOLA SHAR BOX CULVERT,6.0,A,23.7602647328125,91.1038290375,bridge
697,692,N102,46.694,RCC Bridge,KHARERA BRIDGE,14.5,A,23.7690411118367,91.1138816821768,bridge
698,693,N102,47.512,Box Culvert,DAROGABARI BOX CULVERT,12.0,C,23.7741250240549,91.1196976773195,bridge
699,694,N102,48.613,Box Culvert,MONKASAR BOX CULVERT,12.6,B,23.7808685333333,91.1277111458333,bridge
700,695,N102,49.168,Box Culvert,MONKASHA RCC GRIDER BRIDGE,16.06,B,23.7838311994117,91.1321336329411,bridge
701,696,N102,50.488,Box Culvert,SOYDABAD BOX CULVERT,12.2,A,23.790634972888,91.1426418571709,bridge
702,697,N102,50.862,RCC Girder Bridge,CHAITABUS - RCC GIRDER BRIDGE,17.3,C,23.7925664032258,91.1456018225806,bridge
703,698,N102,51.794,Box Culvert,TNLLAK BOX CULVERT,19.0,B,23.7993621932004,91.1496333468933,bridge
704,699,N102,52.474,RCC Girder Bridge,Bizna Bridge,49.75,B,23.8052032218455,91.1510109740113,bridge
705,700,N102,53.317,Box Culvert,CHATURA CULVERT,36.8,B,23.8128512780487,91.1525916439024,bridge
706,701,N102,55.063,RCC Bridge,TANTO CULVERT,8.7,B,23.828311880845,91.1549145893896,bridge
707,702,N102,55.346,Box Culvert,MATIA PARA BOX CULVERT,4.6,A,23.8307622812274,91.1552750851985,bridge
708,703,N102,56.766,PC Girder Bridge,DARKHAR BRIDGE,166.3,B,23.8433132090909,91.1569792363636,bridge
709,704,N102,58.681,PC Girder Bridge,Ujaneswar Bridge,34.2,B,23.8591413083217,91.1564064449375,bridge
710,705,N102,59.118,Box Culvert,AWARON CULVERT,3.0,B,23.8618306259259,91.1536961703703,bridge
711,706,N102,59.655,RCC Bridge,AHARAVDHO RCC GRIDGE,14.0,C,23.8648880315298,91.1498322192164,bridge
712,707,N102,60.841,RCC Girder Bridge,MODINAGOR RCC GIDER BRIDGE,27.3,B,23.8749941691908,91.1409041702282,bridge
713,708,N102,62.377,Box Culvert,SULTANPUR BOX CULVERT,5.5,A,23.8853489295858,91.1348459710059,bridge
714,709,N102,63.039,Box Culvert,SULTANPUR BOX CULVERT,5.6,A,23.8895347735294,91.1321742735294,bridge
715,710,N102,63.311,RCC Bridge,Sultanpur Uttar Bridge,21.25,C,23.8929316116246,91.1310313021008,bridge
716,711,N102,64.608,PC Girder Bridge,Radhika Bridge,50.25,C,23.9037118313432,91.1265059537313,bridge
717,712,N102,65.72,Box Culvert,OUSURA BOX CULVERT,5.6,A,23.913259581065,91.1233226442307,bridge
718,713,N102,66.71,Box Culvert,UZURA CULVERT,5.6,A,23.921686040606,91.1205320224242,bridge
719,714,N102,67.164,Box Culvert,RAMRAIL BOX CULVERT,12.0,B,23.9256180593023,91.1192338627907,bridge
720,715,N102,68.007,RCC Girder Bridge,RAMRAIL BRIDGE.,48.4,D,23.9328134045563,91.1168121455635,bridge
721,716,N102,69.643,Box Culvert,VADHUGLAR BOX CULVERT,3.0,B,23.9472357303754,91.1168502819112,bridge
722,717,N102,70.285,RCC Girder Bridge,Kath toli old Bridge,90.6,C,23.9529335260869,91.116861673913,bridge
723,718,N102,73.118,RCC Girder Bridge,NORTH PORTALA BRIDGE,30.8,B,23.9679353219827,91.1013978806034,bridge
724,719,N102,76.824,RCC Girder Bridge,Gabura Bridge.,16.68,C,23.9987492949579,91.109389610084,bridge
725,720,N102,77.75,Box Culvert,SUHILPUR MIRHATI BOX CULVERT,3.0,A,24.006973103069,91.1087472335038,bridge
726,721,N102,78.132,Box Culvert,MOLABI BARI CULVERT,6.5,B,24.0102985311688,91.1093858267532,bridge
727,722,N102,78.587,Box Culvert,SUHIL PUR BOX CULVERT,7.0,A,24.0143670857142,91.1098735017857,bridge
728,723,N102,79.737,Box Culvert,UTTOR SHOHIL PUR CULVERT,3.0,B,24.0245823385026,91.1118705048128,bridge
729,724,N102,81.779,Box Culvert,BATHBARIA BOX CULVERT,3.0,A,24.0426882295942,91.1140799386635,bridge
730,1574,N102,82.682,sourcesink,sourcesink,0.0,,24.0506111,91.1146667,sourcesink
731,3,N103,0.0,sourcesink,sourcesink,0.0,,23.9570278,91.1155278,sourcesink
732,1586,N103,4.779,sourcesink,sourcesink,0.0,,23.9968886,91.1092778,sourcesink
733,4,N104,0.0,sourcesink,sourcesink,0.0,,23.0096667,91.3994163,sourcesink
734,725,N104,0.349,Slab Culvert,Shasaugtachha culvert,3.65,A,23.009361697528,91.3961485620224,bridge
735,726,N104,0.417,Slab Culvert,S.S.SK ROAD SLAB CULVERT,2.7,B,23.0093022701123,91.3955118680898,bridge
736,727,N104,2.63,Slab Culvert,PAZGACIA SLAB CULVERT,2.7,C,23.0098384198224,91.3741733526627,bridge
737,728,N104,4.693,Slab Culvert,MATIARA SLAB CULVERT,2.7,B,23.00486624,91.3553213033333,bridge
738,729,N104,7.882,Box Culvert,SILONIA BOX CVLVERT,1.9,A,22.98388297,91.339993435,bridge
739,730,N104,8.075,PC Girder Bridge,Selonia bridge,89.23,B,22.9831354973684,91.3383410394736,bridge
740,731,N104,9.34,Slab Culvert,AMIR GOAN SLAB CULVERT,2.8,C,22.9725664333333,91.3345594866043,bridge
741,732,N104,10.51,Box Culvert,BAKER BAZAR BOX CULVERT,3.0,A,22.9621618217687,91.3331859341836,bridge
742,733,N104,11.616,RCC Girder Bridge,SAHID SLAM SHETU,48.1,A,22.9546105173333,91.3271586005333,bridge
743,734,N104,12.865,Box Culvert,CHONG ARPULL BOX CULVERT,3.0,C,22.9473724525,91.318005224375,bridge
744,735,N104,15.221,Slab Culvert,DAGHANBUIYA SLAB CULVERT,4.4,C,22.9377824401384,91.2988712474048,bridge
745,736,N104,17.41,RCC Bridge,RAMNAGAR BRIGE,6.0,A,22.9406775950413,91.2783565768595,bridge
746,737,N104,18.717,Slab Culvert,RAMNAGAR SIAB CULVERT,2.5,A,22.9436162237609,91.2660078638484,bridge
747,738,N104,18.96,Box Culvert,RAMNAGAR SLAB CULVERT (3,12.6,B,22.9440589671641,91.2636935955224,bridge
748,739,N104,21.289,Box Culvert,BHUYAIN DIGI CULVERT,3.1,C,22.9518106674418,91.2436016935216,bridge
749,740,N104,22.483,RCC Girder Bridge,Kallyandi Bridge,9.25,C,22.9571669815,91.234092125375,bridge
750,741,N104,23.538,Slab Culvert,SANBAG CULVERT,2.8,B,22.9574308844488,91.2240221080708,bridge
751,742,N104,25.02,Slab Culvert,SOMIR BAZAR SLAB CULVERT,2.5,A,22.9549506453074,91.2099171100323,bridge
752,743,N104,27.179,Slab Culvert,SHIBPUR SLAB CULVERT,2.7,C,22.9526646268292,91.1883939975609,bridge
753,744,N104,28.457,Box Culvert,BAROPAL SLAB CULVERT,9.1,A,22.9499684924265,91.1761586894899,bridge
754,745,N104,30.328,Slab Culvert,SONYGOFULL CULVERT,3.0,B,22.9483211833333,91.1599462136111,bridge
755,746,N104,31.358,RCC Bridge,PASHIMSIB PUR,6.0,C,22.9476941,91.1496474235294,bridge
756,747,N104,32.042,Slab Culvert,HAZIPUR CULVERT,3.2,B,22.9472470542056,91.1430588514018,bridge
757,748,N104,33.81,PC Girder Bridge,Chowmohoni Bazar(right,20.5,A,22.9459525242424,91.1260321333333,bridge
758,749,N104,35.203,Steel Beam & RCC Slab,krimpur Bridge,38.2,B,22.9451020481707,91.1127623422764,bridge
759,750,N104,36.331,Box Culvert,ALIPUR BOX CULVERT,3.1,A,22.9406700125474,91.104453648309,bridge
760,751,N104,36.7,Box Culvert,CONTRACTOR MOSJIDE BOX CULNERT,6.5,A,22.9362668298342,91.1041743657458,bridge
761,752,N104,37.221,Slab Culvert,DARMACHPUR CULVERT,3.2,C,22.9342244369685,91.104168539926,bridge
762,753,N104,38.197,Box Culvert,MAMZAN BIBO BOX CULVERT,18.6,B,22.9256782339622,91.1032458267924,bridge
763,754,N104,38.747,Box Culvert,AKLASPUR CULVERT,3.0,B,22.9210135531914,91.1023406859574,bridge
764,755,N104,39.991,Box Culvert,BARIPOLE BOX,6.2,D,22.9097675528695,91.101540877913,bridge
765,756,N104,40.719,Box Culvert,KABOWA BAZAR BOX CULVERT,9.4,A,22.9033930767441,91.0999670297674,bridge
766,757,N104,44.384,Slab Culvert,TOWN HALL MORE CULVERT,1.0,C,22.8713671275862,91.0969029620689,bridge
767,758,N104,44.84,Box Culvert,BOXSI MAZIR BOX CULVERT,6.4,A,22.8674438,91.0970645,bridge
768,759,N104,45.109,Box Culvert,GAPTANG BOX CULVERT,6.5,A,22.8644948384615,91.0969575561538,bridge
769,760,N104,45.558,Box Culvert,POKIR PUR BOX CULVERT,3.5,B,22.8607331215686,91.0962115705882,bridge
770,761,N104,47.345,RCC Girder Bridge,Dotter Hut Bridge,16.39,D,22.8471995091891,91.0970113935135,bridge
771,762,N104,48.19,Box Culvert,OUTTOR SONAPUR BOX CULVERT,2.0,A,22.8385164697674,91.0992446418604,bridge
772,763,N104,48.417,Slab Culvert,UTTOR SONAPUR SLAB CULVERT,2.0,B,22.8365042056847,91.0998638767441,bridge
773,764,N104,48.939,Box Culvert,SONAMIPUR BOX CULVERT,3.0,A,22.8319003302681,91.1006688726053,bridge
774,1709,N104,49.63,sourcesink,sourcesink,0.0,,22.8257493,91.1014444,sourcesink
775,5,N105,0.0,sourcesink,sourcesink,0.0,,23.6904163,90.5466108,sourcesink
776,765,N105,0.024,Box Culvert,MODONPUR,12.8,C,23.6906082999999,90.5467174752,bridge
777,766,N105,1.1,Box Culvert,MODONPUR COLLEGE,6.25,A,23.69915705,90.5514491,bridge
778,767,N105,2.313,Box Culvert,LALADI CULVERT,6.1,A,23.7070840042553,90.5594803060283,bridge
779,768,N105,3.769,Box Culvert,KHAJLA PUR,6.0,A,23.7159717017241,90.5698255482758,bridge
780,769,N105,5.641,Box Culvert,KAZI PARA,6.1,A,23.7274051106382,90.5830848845744,bridge
781,770,N105,6.178,Box Culvert,BOSTROL CULVERT,6.0,A,23.7307182495049,90.5869127247524,bridge
782,771,N105,16.585,Box Culvert,BRAAMAN,10.4,A,23.8167737889,90.5663002303,bridge
783,772,N105,16.791,Box Culvert,BRAMMAN KALY,6.2,A,23.8185418251,90.5658311477,bridge
784,773,N105,17.39,Box Culvert,SHIMOLIA,6.0,A,23.82369723648,90.56447829088,bridge
785,774,N105,18.846,Box Culvert,MAZIPARA,4.6,A,23.8355697727272,90.5602806,bridge
786,775,N105,20.374,Box Culvert,CHAPRA,4.5,A,23.8370714802955,90.5483091571428,bridge
787,776,N105,20.625,Box Culvert,CHAPRY,4.5,A,23.8361699204433,90.5460680857142,bridge
788,777,N105,21.44,Box Culvert,POLKHAN,4.5,A,23.8361566434782,90.5390552086956,bridge
789,778,N105,21.674,Box Culvert,POLKHAN,6.2,A,23.8377476173913,90.5376107768115,bridge
790,779,N105,22.104,Box Culvert,GULLEN,4.6,A,23.8406846291933,90.5349312661971,bridge
791,780,N105,23.164,Box Culvert,GOLLAR,6.0,A,23.8459770761346,90.5300450827232,bridge
792,781,N105,23.992,Box Culvert,KEAFON,4.6,A,23.8536842210526,90.5231528789473,bridge
793,782,N105,24.561,Box Culvert,MADANPUR,6.0,A,23.8575924656405,90.5196998343594,bridge
794,783,N105,26.697,Baily with Steel Deck,ULAKOLA,209.0,A,23.8716508911025,90.5065461963249,bridge
795,784,N105,27.14,Box Culvert,PATARTEK,4.5,A,23.8750783572533,90.504749175822,bridge
796,785,N105,27.625,Box Culvert,SHAMARSINGH,4.5,A,23.8788307750483,90.5027817831721,bridge
797,786,N105,28.385,Box Culvert,SHAMARSINGH,4.5,A,23.8841649488095,90.4989862071428,bridge
798,787,N105,28.751,Box Culvert,MADANPUR,4.5,A,23.8856211559322,90.4963353644067,bridge
799,788,N105,29.116,PC Girder Bridge,Ulukhola Bridge,174.75,A,23.8858911498789,90.4927756864406,bridge
800,789,N105,29.868,Box Culvert,NARAYAN ROLI,5.0,A,23.8877957956,90.4862561908,bridge
801,790,N105,30.49,Box Culvert,NARAYAN ROLI,5.0,A,23.8922016082,90.4840617126,bridge
802,791,N105,31.612,Box Culvert,SHAMMUDDA,4.5,A,23.9000311163498,90.4819416376425,bridge
803,792,N105,31.941,Box Culvert,SHAMMUDDA,1.0,A,23.9039881298947,90.4798911319999,bridge
804,793,N105,32.178,Box Culvert,SAMUDAA,3.0,A,23.9060116608421,90.479198144,bridge
805,794,N105,32.594,Box Culvert,SHAMUDDA,3.4,A,23.9087810798165,90.4768658055045,bridge
806,795,N105,34.758,Box Culvert,DIRAJGRAM,5.0,A,23.9221201867857,90.4630523696428,bridge
807,796,N105,34.834,Box Culvert,DIRAJSHRAM,5.0,A,23.9224368625,90.4623888625,bridge
808,797,N105,35.204,Box Culvert,DIRASURAM,13.0,A,23.9240826776119,90.459158330597,bridge
809,798,N105,35.821,Box Culvert,BASURA,3.0,A,23.9275104349253,90.4547073662686,bridge
810,799,N105,36.521,Box Culvert,BASURA,4.5,A,23.9318303820895,90.4503186477612,bridge
811,800,N105,38.12,Box Culvert,JUGITALA,7.0,A,23.9413308513317,90.4378418447941,bridge
812,801,N105,38.653,Box Culvert,MOGORKHAL,6.0,A,23.9439225614991,90.4337640512776,bridge
813,802,N105,39.09,Box Culvert,MOGORKHAL,3.0,A,23.9459245869257,90.4296521268551,bridge
814,803,N105,39.372,Box Culvert,MONGLEKHAN,3.0,A,23.9469564729428,90.4271704026499,bridge
815,804,N105,39.716,Box Culvert,MADANPUR,3.0,A,23.9479826676429,90.4245716433751,bridge
816,805,N105,40.338,Box Culvert,BOGRA,3.0,A,23.9490639294372,90.4188995177489,bridge
817,806,N105,40.635,Box Culvert,BOGRA-2,3.0,A,23.9494478437229,90.4160247248917,bridge
818,807,N105,41.036,Box Culvert,BOGRA-3 BOX CULVERT,3.0,A,23.950303375,90.4122093535714,bridge
819,808,N105,41.73,Box Culvert,NOWZAR,3.0,A,23.9520916858156,90.4049331287234,bridge
820,809,N105,42.318,Box Culvert,NOWZAR-2,3.0,A,23.9554939148437,90.4018066429687,bridge
821,1826,N105,48.87,sourcesink,sourcesink,0.0,,23.9895274,90.3582222,sourcesink
822,6,N106,0.0,sourcesink,sourcesink,0.0,,22.3935552,91.8215827,sourcesink
823,810,N106,0.477,Box Culvert,TANARI BOTTOLA CULVERT,2.1,C,22.397475046875,91.8200368225,bridge
824,811,N106,0.642,Slab Culvert,TANARI BOTTOLA CULVERT,3.0,A,22.3989996464285,91.8198128357142,bridge
825,812,N106,0.818,Box Culvert,TANARI BOX CULVERT,2.1,C,22.4004396252873,91.8193706183907,bridge
826,813,N106,1.436,Box Culvert,BALUCHARA,3.0,A,22.4059466,91.8186830923076,bridge
827,814,N106,2.143,Box Culvert,BALUCHARA,12.3,A,22.412053275,91.8185294333333,bridge
828,815,N106,2.521,RCC Girder Bridge,Natunpara Bridge,18.78,C,22.4153754965425,91.8191481220744,bridge
829,816,N106,3.297,Box Culvert,AMAR BAZAR,4.0,A,22.4222129444794,91.820007825552,bridge
830,817,N106,3.524,Box Culvert,LALIYAR HAT,3.3,C,22.4241988774468,91.819806887234,bridge
831,818,N106,4.259,Box Culvert,BORDIGHIR PAR,4.5,C,22.4307152136363,91.81995385,bridge
832,819,N106,5.07,Steel Beam & RCC Slab,BORODIGHIR PAR,8.8,C,22.4379251385964,91.8205382824561,bridge
833,820,N106,5.797,Box Culvert,CHOWDIRIR HAT,6.0,C,22.4441288416781,91.8191340657496,bridge
834,821,N106,6.596,Box Culvert,PASHIM CHARAKUL CUL,8.0,A,22.4510976273356,91.8176600723183,bridge
835,822,N106,6.829,Box Culvert,PASHM CHARAKUL BOX CULV,8.2,A,22.4531232379166,91.8173662475,bridge
836,823,N106,7.044,Box Culvert,PASSIM SURAGOL,9.4,B,22.4550668461538,91.8171812637362,bridge
837,824,N106,8.202,Box Culvert,FATEPUR,10.2,A,22.4652592666666,91.8164352,bridge
838,825,N106,8.812,Steel Beam & RCC Slab,Modarhat Bridge,13.2,A,22.4704996642036,91.8152784730706,bridge
839,826,N106,9.674,Box Culvert,ALALPARA BOX CUL,6.0,A,22.4779060057803,91.8133609049133,bridge
840,827,N106,11.152,Box Culvert,11 MILE BOX CULVERT,3.8,C,22.4893359687022,91.8079444,bridge
841,828,N106,11.826,Box Culvert,DAWANNAGOR CULVERT,9.5,C,22.4952738064801,91.8075121466862,bridge
842,829,N106,13.956,Slab Culvert,SHAZZAPUR SLAB CULVERT,9.5,B,22.5034389735849,91.821686326415,bridge
843,830,N106,14.371,RCC Girder Bridge,Subadaggu Bridge,63.86,C,22.5044250581395,91.8261362953488,bridge
844,831,N106,15.075,Steel Beam & RCC Slab,Isapur Bridge,34.2,C,22.5068245060606,91.8316268141414,bridge
845,832,N106,16.038,Baily with Steel Deck,FOUZIA BAZAR BAILY BRIDGE,37.3,C,22.5104046038759,91.840083468217,bridge
846,833,N106,16.597,RCC Girder Bridge,Sardargat Bridge,102.69,C,22.5128873453287,91.8441870041522,bridge
847,834,N106,17.052,Box Culvert,BODORGONA BOX CUL,3.0,A,22.5154714630769,91.8465342418461,bridge
848,835,N106,17.703,Steel Beam & RCC Slab,MIARGHATA BRIDGE,22.7,C,22.5161957308411,91.8524656925233,bridge
849,836,N106,18.383,Box Culvert,MANGHATA BOX CULVERT,12.4,A,22.517860590625,91.8584986533653,bridge
850,837,N106,18.697,Box Culvert,GOHIRA,3.0,A,22.519044959375,91.86123483125,bridge
851,838,N106,19.035,Arch Masonry,GOHIRA ARCH MASONARY,1.2,B,22.5206210855895,91.8650610349345,bridge
852,839,N106,19.918,Truss with RCC Slab,Gohiro Steei Bridge,37.78,A,22.5244144663697,91.8712166966592,bridge
853,840,N106,20.585,Steel Beam & RCC Slab,Boropool Bridge,24.69,C,22.5282177382926,91.8757413246341,bridge
854,841,N106,20.609,Steel Beam & RCC Slab,BOROPUR BRIDGE,24.0,B,22.5283283080487,91.875926692439,bridge
855,842,N106,21.851,Steel Beam & RCC Slab,Dabbo Bridge,24.13,C,22.5315882215094,91.8873769335849,bridge
856,843,N106,22.078,Slab Culvert,JALANIR HAT,4.3,C,22.5322187675471,91.8894470879245,bridge
857,844,N106,22.317,Box Culvert,SULTAN PUR CULVERT,3.0,A,22.5324965386554,91.8916659109243,bridge
858,845,N106,22.823,Baily with Steel Deck,BAROLIA BAILEY,18.0,B,22.5331093008042,91.89654911689,bridge
859,846,N106,23.096,Steel Beam & RCC Slab,BEROLIA BRIDGE,22.4,C,22.5334689609929,91.8991200510638,bridge
860,847,N106,23.665,Box Culvert,ROYZON BOT TOLA,9.4,A,22.5346564480938,91.9044673140762,bridge
861,848,N106,24.785,Arch Masonry,GALINAGAR,12.2,C,22.5349627852459,91.9147807672131,bridge
862,849,N106,25.356,Arch Masonry,ODIL NOGOR BUS TAND 2,6.0,C,22.5348496903485,91.9202035034852,bridge
863,850,N106,25.719,Box Culvert,POSHIM RAYJON,9.4,C,22.53546636,91.9236382399999,bridge
864,851,N106,25.861,Box Culvert,DEOPARA,6.1,A,22.5356289885638,91.9250053986702,bridge
865,852,N106,28.72,RCC Girder Bridge,PURBO RAWJAN DALA MUK,14.6,A,22.5393906268339,91.9521974791505,bridge
866,853,N106,29.154,RCC Girder Bridge,Rauzan dalarmuk Bridge,15.1,A,22.5386663,91.9561389,bridge
867,854,N106,29.829,Arch Masonry,GODARPUR ARCH MASONARY,4.0,D,22.5385715529411,91.9626192764705,bridge
868,855,N106,30.363,RCC Girder Bridge,GODAR PAR,18.0,A,22.5382539349693,91.968204193865,bridge
869,856,N106,30.727,Arch Masonry,GODAR PAR ARCH,11.7,A,22.5401736559278,91.9690544966494,bridge
870,857,N106,30.903,Arch Masonry,1ST CHEEK POST,1.2,A,22.5407718486891,91.9700912977528,bridge
871,858,N106,31.044,Arch Masonry,CHEEK POST ARSH MASONARY,6.0,C,22.5410358936329,91.9714262033707,bridge
872,859,N106,31.149,Box Culvert,DILBABUNRA,4.5,A,22.5411661895705,91.9723476699386,bridge
873,860,N106,31.23,Box Culvert,AMTULA BOX,3.0,B,22.5412352134969,91.9730240447852,bridge
874,861,N106,31.402,Box Culvert,New para box culvert,9.6,B,22.5415036119718,91.9746998239436,bridge
875,862,N106,32.398,Arch Masonry,Morartak,5.2,C,22.5391385578947,91.9823604157894,bridge
876,863,N106,32.658,Arch Masonry,MONARTECK CULVERT,5.3,B,22.5403435451612,91.9841895612903,bridge
877,864,N106,32.974,Box Culvert,CHAIRMAN GHAT BOX CULVERT(R,2.0,D,22.5427734848214,91.9853667017857,bridge
878,865,N106,32.974,Box Culvert,Chairman Gate Box(L,2.0,D,22.5427734848214,91.9853667017857,bridge
879,866,N106,33.109,Box Culvert,Chairman Gate 2,3.0,A,22.5439338567901,91.9855106148148,bridge
880,867,N106,33.221,Box Culvert,CHAIRMAN GATE BOX CULVERT,3.0,A,22.5447815512195,91.9859346146341,bridge
881,868,N106,33.563,Arch Masonry,PAHARPARA ARCH MAS,1.5,A,22.5466522340277,91.9882234256944,bridge
882,869,N106,33.689,Box Culvert,BETBUNIA BOX CULVERT,3.0,A,22.5465993096491,91.9892642754386,bridge
883,870,N106,33.869,Arch Masonry,BETBUNIA ARCH MASONRY,6.0,A,22.5459227650429,91.9908201744985,bridge
884,871,N106,33.897,Arch Masonry,BET BUNIA ARCH MA,6.0,A,22.5458113346704,91.9910608621776,bridge
885,872,N106,34.37,Box Culvert,BETBEAINA BOX CULVERT,12.3,A,22.5454676462963,91.9952659935185,bridge
886,873,N106,35.038,Box Culvert,SUP NALA SUBMARGE,4.5,A,22.5455193036437,92.0050399445344,bridge
887,874,N106,35.329,Box Culvert,GUYATAL CULVERT,4.4,B,22.5453884125506,92.005236281174,bridge
888,875,N106,35.678,Box Culvert,SHIKDER PARA CULVERT,1.8,A,22.5447626163771,92.0067854176178,bridge
889,876,N106,35.986,Box Culvert,SIKDAR PARA (2 CULVERT,3.0,A,22.5439360457943,92.0095418140186,bridge
890,877,N106,36.661,RCC Girder Bridge,Chukhar Mil Rcc Bridge,25.2,C,22.5486653716738,92.0123754300429,bridge
891,878,N106,36.819,Slab Culvert,RANGUNID,3.0,A,22.5497767287553,92.0132607725321,bridge
892,879,N106,37.071,Box Culvert,RAMGONA BOX CULVERT,5.0,A,22.5513393394799,92.0149879886524,bridge
893,880,N106,37.488,Arch Masonry,THANDHA CHOR ARCH MASONRY,2.2,D,22.5531626085714,92.0181951722448,bridge
894,881,N106,38.465,Arch Masonry,THANDA SORI,1.9,A,22.555958752855,92.0267886431918,bridge
895,882,N106,38.928,Slab Culvert,THANDA CHORI SLAB,4.5,A,22.557728795754,92.0307806793557,bridge
896,883,N106,39.312,Box Culvert,THANDA CHORI,3.0,A,22.5593320279411,92.03388754375,bridge
897,884,N106,40.007,Steel Beam & RCC Slab,RANIRHAT BRIDGE,95.0,D,22.563634790773,92.037962580798,bridge
898,885,N106,40.596,Arch Masonry,RANIRHAT ARCH MASONRY,3.0,C,22.5684408152941,92.0398071417647,bridge
899,886,N106,40.811,Arch Masonry,RANIARAT ARCH,3.0,B,22.5701004150375,92.040662581203,bridge
900,887,N106,41.355,Arch Masonry,RANIRAT ARCK,6.6,A,22.574619117161,92.0427147411016,bridge
901,888,N106,41.503,Box Culvert,SADAKPARA BOX,9.4,A,22.5756298175757,92.0434282727272,bridge
902,889,N106,42.132,Arch Masonry,SADAK NAGAR CUL,1.5,A,22.5794600180055,92.0473380518005,bridge
903,890,N106,42.317,Box Culvert,GUBTULL CULVERT,3.0,A,22.580563896319,92.0485816122699,bridge
904,891,N106,43.107,Box Culvert,MOGOY CHORI,11.2,A,22.5836623015105,92.0551782392749,bridge
905,892,N106,44.33,Steel Beam & RCC Slab,Mogachhari Bridge,14.8,B,22.5883422208333,92.0657728458333,bridge
906,893,N106,44.8,Arch Masonry,MOGAY CHORI,5.6,B,22.5905680590038,92.0694488149425,bridge
907,894,N106,45.223,Box Culvert,MOGI CHORI,3.0,A,22.5934267934865,92.0713846477011,bridge
908,895,N106,47.733,Box Culvert,MOGI CHORI,3.0,A,22.6037405683776,92.0909075887259,bridge
909,896,N106,48.007,Arch Masonry,GARRA ARCH,12.9,C,22.6048707241979,92.0922051834097,bridge
910,897,N106,49.015,Arch Masonry,GHAGRA ARCH MASO,1.0,A,22.6095055465408,92.0974894968553,bridge
911,898,N106,49.352,Arch Masonry,GHARA PARA ARCH,1.0,A,22.610977431132,92.0999182283018,bridge
912,899,N106,49.593,Arch Masonry,GAGRA BRIDGE,11.0,A,22.6120300251572,92.1016550955975,bridge
913,900,N106,50.1,Arch Masonry,GAIYA CHARA,3.0,C,22.6164087248626,92.1024845527472,bridge
914,901,N106,50.279,Arch Masonry,GAIACHORA ARCH MASONARY,1.5,A,22.6180272733516,92.102682632967,bridge
915,902,N106,50.759,Arch Masonry,KALA BAGAN (2 ARCH(L,1.0,A,22.6204395223404,92.1039324444149,bridge
916,903,N106,50.759,Arch Masonry,COLABAGAN ARCH MASONRY(R,1.0,A,22.6204395223404,92.1039324444149,bridge
917,904,N106,50.81,Arch Masonry,KHALA BAGAN 1,1.0,A,22.6206768893617,92.1043129776595,bridge
918,905,N106,51.105,Arch Masonry,KOLA BAGAN ARCH MASONRY,4.6,C,22.6220498946808,92.1065141013297,bridge
919,906,N106,51.208,Arch Masonry,MOIS PARA CULVERT,3.0,B,22.6225344,92.1074005736842,bridge
920,907,N106,51.297,Box Culvert,MOSHIS PARA CULVERT,9.4,A,22.6229414321525,92.1081668079019,bridge
921,908,N106,51.573,Arch Masonry,MOSH PARA ARCH MASONRY,6.0,A,22.6238188414168,92.1100887305177,bridge
922,909,N106,52.149,Arch Masonry,MOIS PARA ARCH MASONRY,2.0,B,22.6278068480314,92.1130745535433,bridge
923,910,N106,52.654,Arch Masonry,KOBAGON ARCH MASONRY,1.2,A,22.6315620774193,92.1138548677419,bridge
924,911,N106,53.64,Arch Masonry,BOTH BANI CULVERT,2.0,A,22.638833161809,92.115618243216,bridge
925,912,N106,54.041,Arch Masonry,CHITTA ARCH MASONRY,2.0,A,22.639689152,92.1174593697142,bridge
926,913,N106,54.662,Box Culvert,MANIK CHARI BOX CULVERT,1.0,A,22.6408329699999,92.12168824,bridge
927,914,N106,55.929,RCC Girder Bridge,Manikchhari Bridge,75.55,B,22.6448155370689,92.1296145956896,bridge
928,2038,N106,66.85,sourcesink,sourcesink,0.0,,22.6485274,92.2018333,sourcesink
929,7,N107,0.0,sourcesink,sourcesink,0.0,,22.3944163,91.891833,sourcesink
930,915,N107,0.052,Baily with Steel Deck,KALURGHAT BRIDGE,23.8,A,22.3940423375404,91.89205737411,bridge
931,916,N107,0.382,PC Girder Bridge,Kalurghat Bridge-2,24.0,B,22.3916454389057,91.893384356231,bridge
932,917,N107,1.917,Baily with Steel Deck,AFOLAHMED BRIDGE,9.1,A,22.3820119224043,91.9037775136612,bridge
933,918,N107,3.435,Box Culvert,WEST GUNDONDI,5.6,D,22.3699561188073,91.9073696133027,bridge
934,919,N107,4.553,Box Culvert,JUNGA CULVERT,8.3,B,22.3614650902654,91.911692219469,bridge
935,920,N107,4.895,RCC Girder Bridge,Shakpura Bridge,36.0,B,22.3593103241758,91.9136013241758,bridge
936,921,N107,6.742,Box Culvert,BARUARTEK,4.5,C,22.3451353199999,91.9176832473684,bridge
937,922,N107,7.288,RCC Girder Bridge,Military pool,73.0,D,22.3403250948616,91.9170669114624,bridge
938,923,N107,8.59,Box Culvert,PACHURIA CULVERT 1,2.4,D,22.329086592233,91.9145772391585,bridge
939,924,N107,8.947,Box Culvert,PACHURIA CULVERT 2,4.5,D,22.3263705473684,91.9153211807017,bridge
940,925,N107,10.11,Box Culvert,MANSERTEK,5.0,B,22.3187222222222,91.9203888888889,bridge
941,2069,N107,10.542,sourcesink,sourcesink,0.0,,22.3159722,91.9235827,sourcesink
942,8,N108,0.0,sourcesink,sourcesink,0.0,,22.1021389,92.0740827,sourcesink
943,926,N108,0.882,RCC Girder Bridge,South Kachia-1 Bridge,8.02,D,22.1037427264108,92.0823783778781,bridge
944,927,N108,1.189,RCC Girder Bridge,South Kachia Bridge.,23.3,C,22.1044565692307,92.0850637333333,bridge
945,928,N108,1.531,RCC Girder Bridge,Montola-1 Bridge,7.8,C,22.1061120742331,92.0874945208589,bridge
946,929,N108,2.282,RCC Bridge,Dostidar hat Bridge.,25.84,A,22.1095908700729,92.0937449810219,bridge
947,930,N108,2.542,RCC Girder Bridge,Dostidar hat-2 Bridge.,21.02,D,22.1100096648888,92.0962011768888,bridge
948,931,N108,4.942,RCC Girder Bridge,BAJALIA BRIDGL 1,90.9,B,22.1222379644889,92.1144522210748,bridge
949,932,N108,5.323,Box Culvert,BAKALIA BOX CULVERT,3.0,A,22.12429315,92.1171554692307,bridge
950,933,N108,5.473,Box Culvert,BAZALIA BOX CULVERT,3.0,A,22.1246271910958,92.118522549315,bridge
951,934,N108,5.741,Box Culvert,BAJALIA BOX CULVERT,4.5,A,22.1248228208178,92.1211110260223,bridge
952,935,N108,6.175,RCC Girder Bridge,Bajlia Bridge-01,31.32,C,22.1260629933333,92.1250115941666,bridge
953,936,N108,6.986,RCC Girder Bridge,Bajalia Bridge-2,45.8,C,22.1275380493011,92.1322904562897,bridge
954,937,N108,7.692,Box Culvert,BORO DOARA BOX CULVERT,9.6,A,22.1270913985559,92.1411748483754,bridge
955,938,N108,8.374,RCC Bridge,BORA DOARA RCC BRIDGE,18.3,A,22.1276474698863,92.1453112232954,bridge
956,939,N108,10.036,Box Culvert,HAL DIA BOX CULVERT,4.5,A,22.1310880261764,92.1603450247058,bridge
957,940,N108,10.495,Box Culvert,HOLODIA BOX CULVERT,2.6,A,22.1342932143162,92.1619118700854,bridge
958,941,N108,11.892,RCC Girder Bridge,Shoalok Bridge-1,70.19,C,22.1399318765363,92.170354362905,bridge
959,942,N108,12.217,Box Culvert,SHOALK HIGH SCHOOL,2.5,A,22.1413926628415,92.1726537360655,bridge
960,943,N108,12.349,RCC Girder Bridge,Shoalok Bridge-2,13.9,A,22.142266537037,92.1734723933333,bridge
961,944,N108,12.506,RCC Girder Bridge,Majherpara Bridge-1,13.9,D,22.1426408954838,92.1747301283871,bridge
962,945,N108,12.605,RCC Girder Bridge,SHOALOK RCC GIDER BRIDGE,14.0,C,22.1427473045161,92.1755462716129,bridge
963,946,N108,12.68,RCC Girder Bridge,Majher Para Bridge-3,14.1,C,22.1431539777777,92.1761258777777,bridge
964,947,N108,12.987,RCC Girder Bridge,SOALOK PARA RCC GIDER BRIDGE,14.0,A,22.145233,92.1775438,bridge
965,948,N108,13.0,Box Culvert,MAZAR PARA-RASTER,12.6,A,22.1453265360655,92.1775864229508,bridge
966,949,N108,13.166,RCC Girder Bridge,Majherpara Bazar Bridge.,10.85,D,22.1464978874125,92.1783023517482,bridge
967,950,N108,13.38,Box Culvert,LAMBA BAG BOX CULVERT,6.3,A,22.1491500794117,92.1792043764705,bridge
968,951,N108,13.726,Box Culvert,LAMBA BAY (1,6.3,A,22.152474647575,92.1802948161662,bridge
969,952,N108,13.793,Box Culvert,LAM BA BAY 2,3.0,A,22.1525649196304,92.1802647357967,bridge
970,953,N108,13.933,Box Culvert,LOMBA BAY (3,3.0,A,22.152753547806,92.1802018812933,bridge
971,954,N108,14.023,Box Culvert,LAMBA BAY (4,3.0,A,22.1534148133333,92.1799567333333,bridge
972,955,N108,14.094,Box Culvert,LAMBA RASTA (1,3.0,A,22.1540420399999,92.1797207285714,bridge
973,956,N108,14.159,Box Culvert,LAMBA RASTA (2,1.5,A,22.154602240909,92.1794955227272,bridge
974,957,N108,14.223,Box Culvert,LAMBA RASTA BOX (1,1.5,A,22.1558953941176,92.1788702117647,bridge
975,958,N108,14.577,Box Culvert,LEICHA BOX CULVERT,3.0,A,22.1577728641509,92.1777057619946,bridge
976,959,N108,14.635,Box Culvert,LEICHA BOX CULVERT,3.0,A,22.1582244981132,92.1774408536388,bridge
977,960,N108,14.729,Box Culvert,RAISA BOX CULVERT,6.6,A,22.1589564566037,92.177011519407,bridge
978,961,N108,15.115,RCC Girder Bridge,Reicha Bazar Bridge,42.77,A,22.1617185692832,92.1767873232081,bridge
979,962,N108,18.701,RCC Girder Bridge,Kana Para Bridge,13.58,B,22.1820543504672,92.1946014457943,bridge
980,963,N108,20.176,Truss with RCC Slab,Amtolipara Bridge,37.0,B,22.1838059066398,92.2049397523138,bridge
981,964,N108,20.481,RCC Girder Bridge,AAMTOLI BRIGE 1,13.5,A,22.1837093265454,92.2072278938181,bridge
982,965,N108,20.717,RCC Girder Bridge,Amtoli para Rcc Bridge-2,9.38,B,22.1847935438053,92.2088726876106,bridge
983,966,N108,21.116,Box Culvert,MISKI BOX CULVERT,6.3,B,22.1866028692015,92.2116978513308,bridge
984,967,N108,21.421,RCC Girder Bridge,Bus stand Bridge-2,9.2,B,22.1870154173333,92.2132735246666,bridge
985,968,N108,21.542,RCC Girder Bridge,Bus Stand -1 Bridge,26.2,C,22.18763163,92.213620835,bridge
986,969,N108,21.689,RCC Girder Bridge,Miski Bridge,40.06,A,22.1885673435897,92.214289176923,bridge
987,2161,N108,22.541,sourcesink,sourcesink,0.0,,22.1960552,92.2176104,sourcesink
988,9,N109,0.0,sourcesink,sourcesink,0.0,,21.4433608,92.1014722,sourcesink
989,2173,N109,2.51,sourcesink,sourcesink,0.0,,21.4284716,92.0953052,sourcesink
990,10,N110,0.0,sourcesink,sourcesink,0.0,,21.4259438,92.0232493,sourcesink
991,970,N110,0.371,Box Culvert,zilinza kali,8.3,A,21.4248318739473,92.0200220881578,bridge
992,971,N110,0.824,Box Culvert,JANAGONA B0X,10.8,A,21.4246159328227,92.0157343496717,bridge
993,972,N110,0.934,Box Culvert,DANARGONA,3.0,A,21.4245868307017,92.0146656903508,bridge
994,973,N110,1.422,Box Culvert,HABIRADA,2.0,A,21.4259617425339,92.0103918832579,bridge
995,974,N110,1.76,Box Culvert,THANAPARISHAD BOX,8.2,A,21.4270424155172,92.0073792982758,bridge
996,975,N110,2.028,Box Culvert,COXBAZAR STSND,2.5,C,21.4268429481481,92.0048950333333,bridge
997,976,N110,3.31,Box Culvert,COXBAZAR GOAL GATE,1.8,A,21.422106748538,91.9938507052631,bridge
998,977,N110,3.561,Box Culvert,POLISHINA COX BAZAR.,9.8,B,21.4210300738095,91.9917483535714,bridge
999,978,N110,4.528,Box Culvert,KALATALI BOX,2.0,A,21.4159755,91.9845888423487,bridge
1000,979,N110,4.781,Box Culvert,KOLATUB,5.2,A,21.41766699,91.9833635566666,bridge
1001,980,N110,4.834,Box Culvert,KALA ALI NYTAN,2.5,C,21.4181142291666,91.9831066416666,bridge
1002,981,N110,5.044,Box Culvert,KALATALI,2.4,A,21.4198683771428,91.982117327619,bridge
1003,982,N110,5.24,Box Culvert,KALAZALI HOTTEL,3.2,A,21.4214424025,91.9812549025,bridge
1004,983,N110,5.433,Box Culvert,KOLATOLI SOGONDA,3.2,A,21.4229734989847,91.9804079822335,bridge
1005,984,N110,5.828,Box Culvert,KALATOLI,2.5,A,21.4260301919191,91.978591889899,bridge
1006,985,N110,5.989,Box Culvert,KALATALI BOX,3.2,A,21.4273972096774,91.9779630096774,bridge
1007,986,N110,6.253,Box Culvert,KALATALI BOX,2.4,A,21.4293774826241,91.976814016312,bridge
1008,987,N110,6.4,Box Culvert,MASH GAIT BOX,4.2,A,21.4305271,91.976166,bridge
1009,988,N110,7.013,Box Culvert,SOX BAZAR CUL,9.4,A,21.432646860125,91.974156642875,bridge
1010,2204,N110,7.56,sourcesink,sourcesink,0.0,,21.4359997,91.9715827,sourcesink
1011,11,N111,0.0,sourcesink,sourcesink,0.0,,22.3934441,91.7491386,sourcesink
1012,2249,N111,12.66,sourcesink,sourcesink,0.0,,22.2984719,91.7922219,sourcesink
1013,12,N112,0.0,sourcesink,sourcesink,0.0,,23.0091944,91.3693882,sourcesink
1014,2259,N112,2.72,sourcesink,sourcesink,0.0,,23.0318604,91.3742493,sourcesink
1015,13,N119,0.0,sourcesink,sourcesink,0.0,,23.4914441,90.9936108,sourcesink
1016,2263,N119,2.38,sourcesink,sourcesink,0.0,,23.4867774,91.0128056,sourcesink
1017,14,N120,0.0,sourcesink,sourcesink,0.0,,23.4772771,91.1361108,sourcesink
1018,2311,N120,20.94,sourcesink,sourcesink,0.0,,23.3581667,91.2534722,sourcesink
1019,15,N123,0.0,sourcesink,sourcesink,0.0,,22.8941386,91.5344719,sourcesink
1020,2330,N123,8.06,sourcesink,sourcesink,0.0,,22.8357497,91.5488886,sourcesink
1021,16,N128,0.0,sourcesink,sourcesink,0.0,,22.624666,91.6548056,sourcesink
1022,2336,N128,1.297,sourcesink,sourcesink,0.0,,22.61475,91.6608611,sourcesink
1023,17,N129,0.0,sourcesink,sourcesink,0.0,,22.5226382,91.7040833,sourcesink
